[
{ "name": "Bouche inconnue", "latitude": 48.824552, "longitude": 2.273172},
{ "name": "Vaugirard", "latitude": 48.839516, "longitude": 2.301348},
{ "name": "Sortie 5 - place du Marché", "latitude": 48.857660, "longitude": 2.433495},
{ "name": "Croix de Chavaux - sortie 2 - rue de Paris", "latitude": 48.858074, "longitude": 2.435539},
{ "name": "Croix de Chavaux - sortie 3 - boulevard de Chanzy (Centre Commercial)", "latitude": 48.858535, "longitude": 2.435815},
{ "name": "Mairie de Montreuil - 3 - Bd Rouget de Lisle", "latitude": 48.861944, "longitude": 2.441052},
{ "name": "Mairie de Montreuil - 4 - Av Pasteur", "latitude": 48.862709, "longitude": 2.441237},
{ "name": "Mairie de Montreuil - 5- Bd Paul Vaillant-Couturier", "latitude": 48.862852, "longitude": 2.441787},
{ "name": "Maraîchers - sortie 3 rue d'Avron", "latitude": 48.852563, "longitude": 2.406038},
{ "name": "Maraîchers - sortie 2 rue des Maraichers", "latitude": 48.852589, "longitude": 2.406224},
{ "name": "Maraîchers - sortie 1 - rue des Pyrénées", "latitude": 48.852911, "longitude": 2.405953},
{ "name": "Rue d'Avron", "latitude": 48.853654, "longitude": 2.410424},
{ "name": "(Porte de Montreuil) Sortie 4 Rue du Volga", "latitude": 48.853311, "longitude": 2.410478},
{ "name": "Sortie 1 Avenue de la Porte de Montreuil", "latitude": 48.853492, "longitude": 2.411259},
{ "name": "Robespierre - 2 - rue Barbès", "latitude": 48.855977, "longitude": 2.424157},
{ "name": "Rue des Boulets - sortie 2 - rue des Boulets", "latitude": 48.852221, "longitude": 2.389258},
{ "name": "Rue des Boulets - sortie 1 - Cité Voltaire", "latitude": 48.852330, "longitude": 2.389473},
{ "name": "Charonne", "latitude": 48.854583, "longitude": 2.385315},
{ "name": "Avenue Dorian", "latitude": 48.847796, "longitude": 2.395172},
{ "name": "Saint-Placide - sortie 1 - rue Notre-Dame des Champs", "latitude": 48.846802, "longitude": 2.326914},
{ "name": "Sèvres Babylone - sortie 3 - boulevard Raspail", "latitude": 48.851517, "longitude": 2.326592},
{ "name": "1 - Boulevard Saint-Michel", "latitude": 48.851395, "longitude": 2.343525},
{ "name": "Fontaine Saint-Michel", "latitude": 48.853288, "longitude": 2.343637},
{ "name": "(Porte d'Orléans) Sortie 1 place du 25 aout 1944", "latitude": 48.822715, "longitude": 2.325869},
{ "name": "Sortie 1 Avenue de la porte de Charenton (Stage Léo Lagrange)", "latitude": 48.832006, "longitude": 2.398951},
{ "name": "Boulevard Voltaire", "latitude": 48.848731, "longitude": 2.394917},
{ "name": "Pasteur - sortie", "latitude": 48.843042, "longitude": 2.312397},
{ "name": "Bouche inconnue", "latitude": 48.884415, "longitude": 2.338636},
{ "name": "Rue de la Convention (escalator)", "latitude": 48.837418, "longitude": 2.296422},
{ "name": "Hôtel de Ville - sortie 6 - Rue de Lobau (Bazar de l'Hôtel de Ville)", "latitude": 48.856834, "longitude": 2.353436},
{ "name": "Hôtel de Ville - sortie 5 - Hôtel de Ville", "latitude": 48.857173, "longitude": 2.352213},
{ "name": "av. Félix Faure", "latitude": 48.836894, "longitude": 2.278980},
{ "name": "rue Balard (Hôpital Européen G. Pompidou)", "latitude": 48.836998, "longitude": 2.278451},
{ "name": "Sortie 2 Boulevard du Général Martial Valin (Ministère de la Défense)", "latitude": 48.835947, "longitude": 2.277998},
{ "name": "Sortie 1 Boulevard Victor", "latitude": 48.835873, "longitude": 2.278332},
{ "name": "Sully-Morland - sortie 1 - boulevard Morland (Préfecture de Paris, Mairie de Paris)", "latitude": 48.851049, "longitude": 2.362497},
{ "name": "Sully - Morland - sortie 3 - boulevard Henri IV", "latitude": 48.851344, "longitude": 2.362482},
{ "name": "Croix de Chavaux - sortie 1 - place Jacques Duclos", "latitude": 48.857781, "longitude": 2.435520},
{ "name": "Bouche inconnue", "latitude": 48.851448, "longitude": 2.331164},
{ "name": "Saint-Sulpice", "latitude": 48.851655, "longitude": 2.331309},
{ "name": "Quai de la Rapée - sortie 1- Place Mazas", "latitude": 48.846099, "longitude": 2.366488},
{ "name": "Censier Daubenton -sortie 1- rue de Miribel", "latitude": 48.840620, "longitude": 2.351513},
{ "name": "Tolbiac - sortie 1 - rue de Tolbiac", "latitude": 48.826333, "longitude": 2.357057},
{ "name": "Tolbiac - sortie 3 - rue Toussaint-Féron", "latitude": 48.826407, "longitude": 2.357414},
{ "name": "Tolbiac - sortie 4 - rue de la Maison Blanche", "latitude": 48.826013, "longitude": 2.357550},
{ "name": "Maison Blanche - sortie 1 - avenue d'Italie", "latitude": 48.821511, "longitude": 2.358950},
{ "name": "Sortie 6 - Avenue Paul Doumer", "latitude": 48.862142, "longitude": 2.287140},
{ "name": "Sortie 1 - Avenue du Président Wilson (Palais de Chaillot)", "latitude": 48.863047, "longitude": 2.288449},
{ "name": "Sortie 3 - Avenue Raymond Poincaré", "latitude": 48.863583, "longitude": 2.287129},
{ "name": "Sortie 4 - Avenue Georges Mandel", "latitude": 48.863286, "longitude": 2.286375},
{ "name": "Bouche inconnue", "latitude": 48.824164, "longitude": 2.273040},
{ "name": "Denfert-Rochereau - sortie 1", "latitude": 48.834188, "longitude": 2.331955},
{ "name": "(Place d'Italie) Sortie 4 Mairie du 13e", "latitude": 48.832170, "longitude": 2.355581},
{ "name": "Saint-Germain-des-Prés - sortie 1 Église Saint-Germain-des-Prés", "latitude": 48.853826, "longitude": 2.333899},
{ "name": "Saint-Germain-des-Prés - sortie 2 rue de Rennes", "latitude": 48.853593, "longitude": 2.333760},
{ "name": "Charles de Gaulle - Étoile - sortie 4 - avenue de Wagram", "latitude": 48.874710, "longitude": 2.295404},
{ "name": "Rue Saint-Martin", "latitude": 48.857162, "longitude": 2.349399},
{ "name": "Malesherbes", "latitude": 48.883096, "longitude": 2.309088},
{ "name": "Rue de Vaugirard", "latitude": 48.837256, "longitude": 2.296770},
{ "name": "Hôtel de Ville - sortie 1 - Rue de Rivoli", "latitude": 48.857504, "longitude": 2.351733},
{ "name": "Denfert-Rochereau - sortie 2", "latitude": 48.833435, "longitude": 2.331846},
{ "name": "Luxembourg", "latitude": 48.846531, "longitude": 2.340532},
{ "name": "Place d'Italie - sortie 3 - Boulevard Vincent Auriol", "latitude": 48.831167, "longitude": 2.356591},
{ "name": "Place d'Italie - sortie 2 - Centre Commercial Italie 2", "latitude": 48.830808, "longitude": 2.355355},
{ "name": "(Place d'Italie) Sortie 1 Boulevard Auguste Blanqui", "latitude": 48.830909, "longitude": 2.354795},
{ "name": "Reuilly - Diderot - sortie 3 - rue de Reuilly", "latitude": 48.847389, "longitude": 2.386467},
{ "name": "Rue Saint-Hubert", "latitude": 48.864018, "longitude": 2.380678},
{ "name": "Créteil Université", "latitude": 48.789509, "longitude": 2.450353},
{ "name": "Bouche inconnue", "latitude": 48.879855, "longitude": 2.358365},
{ "name": "Bouche inconnue", "latitude": 48.879737, "longitude": 2.354882},
{ "name": "Boulevard Diderot", "latitude": 48.845649, "longitude": 2.372997},
{ "name": "Bastille - sortie 3 - Opéra Bastille", "latitude": 48.852513, "longitude": 2.369769},
{ "name": "Gaîté - sortie 4 - rue Vandamme", "latitude": 48.838758, "longitude": 2.322599},
{ "name": "Gaîté - sortie 3 - avenue du Maine", "latitude": 48.838676, "longitude": 2.322131},
{ "name": "Montparnasse Bienvenüe - sortie 4 - tour Montparnasse", "latitude": 48.841696, "longitude": 2.321561},
{ "name": "Denfert-Rochereau - sortie 2 Rue Daguerre", "latitude": 48.833518, "longitude": 2.331588},
{ "name": "Gare de Lyon - 3 - Rue Michel Chasles", "latitude": 48.846018, "longitude": 2.373788},
{ "name": "sortie 4 - Bd Sérurier Hôpital Robert Debré", "latitude": 48.877277, "longitude": 2.406421},
{ "name": "Porte des Lilas - 3 - Rue de Belleville", "latitude": 48.876920, "longitude": 2.406269},
{ "name": "Télégraphe - 2 - Rue de Belleville", "latitude": 48.875530, "longitude": 2.398833},
{ "name": "Télégraphe - 3 - Cimetière de Belleville", "latitude": 48.875446, "longitude": 2.399259},
{ "name": "Place des Fêtes - 2- Rue de Crimée", "latitude": 48.876690, "longitude": 2.392760},
{ "name": "Place des Fêtes - 1- Place des Fêtes", "latitude": 48.876870, "longitude": 2.393608},
{ "name": "Denfert-Rochereau - sortie 2", "latitude": 48.833432, "longitude": 2.331513},
{ "name": "Sortie 1 Av.Marx Dormoy", "latitude": 48.810607, "longitude": 2.302019},
{ "name": "Pasteur - sortie", "latitude": 48.842638, "longitude": 2.312785},
{ "name": "Croix de Chavaux - sortie 4 - rue Kléber", "latitude": 48.857763, "longitude": 2.436726},
{ "name": "Créteil Université", "latitude": 48.789870, "longitude": 2.451082},
{ "name": "Montparnasse Bienvenüe - sortie 2 - place Bienvenüe", "latitude": 48.842572, "longitude": 2.320409},
{ "name": "Ledru-Rollin - sortie 2 - rue du Faubourg Saint-Antoine", "latitude": 48.851168, "longitude": 2.376354},
{ "name": "Ledru-Rollin - sortie 1 - avenue Ledru-Rollin", "latitude": 48.851473, "longitude": 2.376356},
{ "name": "Faidherbe-Chaligny - sortie 1 - rue Faidherbe", "latitude": 48.850310, "longitude": 2.384184},
{ "name": "Faidherbe-Chaligny - sortie 3 - rue du Fg Saint Antoine", "latitude": 48.850394, "longitude": 2.382590},
{ "name": "Bouche inconnue", "latitude": 48.904006, "longitude": 2.305483},
{ "name": "Les Gobelins - sortie 1 - boulevard Saint-Marcel", "latitude": 48.836460, "longitude": 2.352268},
{ "name": "Rue de Bellevue", "latitude": 48.830319, "longitude": 2.232364},
{ "name": "Pont de Sèvres", "latitude": 48.830278, "longitude": 2.232241},
{ "name": "Rue Saint-Maur", "latitude": 48.864396, "longitude": 2.378639},
{ "name": "Parmentier", "latitude": 48.865449, "longitude": 2.374578},
{ "name": "République - sortie 3 Avenue de la République", "latitude": 48.867636, "longitude": 2.364695},
{ "name": "Boulevard Jean Jaurès, rue du Château côté numéros impairs", "latitude": 48.841890, "longitude": 2.238890},
{ "name": "Boulevard Jean Jaurès, rue du Château côté numéros pairs", "latitude": 48.842147, "longitude": 2.238779},
{ "name": "Les Sablons - sortie 1 - rue Louis-Philippe", "latitude": 48.881433, "longitude": 2.271530},
{ "name": "Olympiades - sortie 1 - rue Nationale (escalator)", "latitude": 48.826916, "longitude": 2.366311},
{ "name": "Place Saint-André-des-Arts", "latitude": 48.853146, "longitude": 2.342704},
{ "name": "Sortie 1 - passage Saint-Émilion Bercy village", "latitude": 48.833564, "longitude": 2.386013},
{ "name": "(Barbès - Rochechouart) Sortie 5 Rue Guy Patin", "latitude": 48.883812, "longitude": 2.351127},
{ "name": "(Barbès - Rochechouart) Sortie 3 Bd Barbès", "latitude": 48.883763, "longitude": 2.349790},
{ "name": "Saint-Marcel -sortie 2- Rue des Wallons", "latitude": 48.838535, "longitude": 2.360588},
{ "name": "Saint-Marcel -sortie 1- Bd de la Salpetrière", "latitude": 48.838437, "longitude": 2.360858},
{ "name": "Gare d'Austerlitz - sortie 1 - Bd de l'Hôpital", "latitude": 48.842880, "longitude": 2.364201},
{ "name": "Les Sablons - sortie 2 - jardin d'Acclimatation", "latitude": 48.881110, "longitude": 2.271374},
{ "name": "Buzenval - sortie 2 - rue d'Avron", "latitude": 48.851779, "longitude": 2.401255},
{ "name": "Daumesnil - sortie - rue Claude Decaen, côté des n° pairs", "latitude": 48.839217, "longitude": 2.396069},
{ "name": "Avenue d'Italie", "latitude": 48.819383, "longitude": 2.359258},
{ "name": "Porte d'Italie - sortie 2 boulevard Masséna", "latitude": 48.819258, "longitude": 2.359788},
{ "name": "Rue Fernand Widal", "latitude": 48.818865, "longitude": 2.360666},
{ "name": "Saint-Placide - sortie 2 - rue de Rennes", "latitude": 48.847218, "longitude": 2.326950},
{ "name": "Tolbiac - sortie 4 - rue de la Maison Blanche", "latitude": 48.825951, "longitude": 2.357569},
{ "name": "Tolbiac - sortie 3 - rue Toussaint-Féron", "latitude": 48.826467, "longitude": 2.357395},
{ "name": "Tolbiac - sortie 1 - rue de Tolbiac", "latitude": 48.826391, "longitude": 2.357039},
{ "name": "Maison Blanche - sortie 1 - Avenue d'Italie", "latitude": 48.821462, "longitude": 2.358964},
{ "name": "République - sortie 4 rue du Faubourg du Temple", "latitude": 48.867877, "longitude": 2.364498},
{ "name": "République - sortie 1 place de la République", "latitude": 48.867323, "longitude": 2.364123},
{ "name": "République - sortie 2 rue du Temple", "latitude": 48.866984, "longitude": 2.363601},
{ "name": "Bouche inconnue", "latitude": 48.879787, "longitude": 2.354480},
{ "name": "Boulevard Ney", "latitude": 48.897645, "longitude": 2.344983},
{ "name": "Sortie Rue Belliard - Boulevard Ney (Marché aux puces de Saint-Ouen)", "latitude": 48.897530, "longitude": 2.344313},
{ "name": "Marcadet Poisoniers - 1- Bd Barbès", "latitude": 48.890631, "longitude": 2.349447},
{ "name": "Marcadet Poissonniers - 2-Rue Marcadet", "latitude": 48.890641, "longitude": 2.349768},
{ "name": "Marcadet Poissonniers -4- Rue des Poissonniers", "latitude": 48.891225, "longitude": 2.351843},
{ "name": "Marcadet Poissoniers -5- Rue Ordener", "latitude": 48.891189, "longitude": 2.352037},
{ "name": "Bouche inconnue", "latitude": 48.893904, "longitude": 2.347580},
{ "name": "Bouche inconnue", "latitude": 48.889825, "longitude": 2.338659},
{ "name": "Place de Clichy - 1 - Rue Biot", "latitude": 48.883723, "longitude": 2.327021},
{ "name": "La Fourche", "latitude": 48.887627, "longitude": 2.325491},
{ "name": "Guy Môquet - sortie 4 - rue Lamarck", "latitude": 48.891569, "longitude": 2.327058},
{ "name": "Guy Môquet - sortie 1 - rue Legendre", "latitude": 48.892854, "longitude": 2.327257},
{ "name": "Guy Môquet - sortie 3 - avenue de Saint-Ouen", "latitude": 48.892940, "longitude": 2.327515},
{ "name": "Place de Clichy - 2 - Place de Clichy", "latitude": 48.883593, "longitude": 2.327867},
{ "name": "Jussieu - sortie 1 - Place Jussieu", "latitude": 48.846042, "longitude": 2.354754},
{ "name": "Sully-Morland - sortie 2 Rue de Sully", "latitude": 48.851163, "longitude": 2.362859},
{ "name": "Sortie 2 Avenue d'Ivry (Centre Commercial)", "latitude": 48.821610, "longitude": 2.368756},
{ "name": "Sortie 1 boulevard Masséna", "latitude": 48.821518, "longitude": 2.369737},
{ "name": "Chemin Vert - 2 - Boulevard Beaumarchais rue du Chemin Vert", "latitude": 48.857368, "longitude": 2.368275},
{ "name": "Bastille - sortie 7 - Place de la Bastille (Place des Vosges)", "latitude": 48.853421, "longitude": 2.368395},
{ "name": "Bouche inconnue", "latitude": 48.879442, "longitude": 2.356987},
{ "name": "Avenue du Trône", "latitude": 48.847771, "longitude": 2.396904},
{ "name": "Nation - Sortie 5 - Avenue de Taillebourg", "latitude": 48.848882, "longitude": 2.397007},
{ "name": "Sortie 1 - Boulevard Berthier", "latitude": 48.894200, "longitude": 2.313651},
{ "name": "Place Sainte-Opportune", "latitude": 48.859588, "longitude": 2.347016},
{ "name": "Sortie de l'Avenue du Général de Gaulle", "latitude": 48.846288, "longitude": 2.417378},
{ "name": "Richard Lenoir - 1 - boulevard Voltaire", "latitude": 48.860282, "longitude": 2.372174},
{ "name": "Rue Belliard", "latitude": 48.897537, "longitude": 2.344976},
{ "name": "Rue Letort", "latitude": 48.897368, "longitude": 2.344644},
{ "name": "Forum - Porte Saint-Eustache", "latitude": 48.862798, "longitude": 2.345658},
{ "name": "Arts et Métiers - 4 - Rue Réaumur", "latitude": 48.865463, "longitude": 2.355540},
{ "name": "Rambuteau - 4 - Rue du grenier St Lazarre", "latitude": 48.862612, "longitude": 2.354058},
{ "name": "Boulevard Saint-Jacques", "latitude": 48.833041, "longitude": 2.336570},
{ "name": "Bellevile -2- Rue de Belleville", "latitude": 48.872298, "longitude": 2.376932},
{ "name": "Bellevile - 1 - Bd de Belleville", "latitude": 48.871997, "longitude": 2.377252},
{ "name": "Belleville - 6 - Rue Louis Bonnet", "latitude": 48.871842, "longitude": 2.376714},
{ "name": "Boulevard Gambetta", "latitude": 48.827271, "longitude": 2.278942},
{ "name": "Europe", "latitude": 48.878858, "longitude": 2.322696},
{ "name": "Rue de la Chapelle (escalator)", "latitude": 48.897635, "longitude": 2.359391},
{ "name": "Boulevard Ney", "latitude": 48.898064, "longitude": 2.358937},
{ "name": "Théâtre du Châtelet", "latitude": 48.857854, "longitude": 2.346929},
{ "name": "Place du Châtelet", "latitude": 48.857659, "longitude": 2.347385},
{ "name": "Pont Neuf (rue de la Monnaie)", "latitude": 48.858674, "longitude": 2.342272},
{ "name": "Rue Bertin Poirée", "latitude": 48.859363, "longitude": 2.345157},
{ "name": "Rue des Lavandières", "latitude": 48.858987, "longitude": 2.346229},
{ "name": "Rue Saint-Denis", "latitude": 48.858643, "longitude": 2.347262},
{ "name": "Place Louis Lépine", "latitude": 48.855192, "longitude": 2.347133},
{ "name": "Rue de Rivoli", "latitude": 48.859203, "longitude": 2.346292},
{ "name": "Rue de Rivoli", "latitude": 48.859239, "longitude": 2.346201},
{ "name": "Rue de la Lingerie", "latitude": 48.860325, "longitude": 2.346393},
{ "name": "Palais-Royal Musée du Louvre - 1 - Musée du Louvre (Musée du Louvre)", "latitude": 48.862412, "longitude": 2.336589},
{ "name": "Palais-Royal Musée du Louvre - 2 - place du Palais Royal", "latitude": 48.862596, "longitude": 2.336257},
{ "name": "Palais-Royal Musée du Louvre - 3 - rue Saint-Honoré", "latitude": 48.862762, "longitude": 2.336350},
{ "name": "Palais-Royal Musée du Louvre - 4 - rue de Valois (Le Louvre des Antiquaires)", "latitude": 48.862530, "longitude": 2.337304},
{ "name": "La Motte-Picquet Grenelle - sortie 3 boulevard de Grenelle", "latitude": 48.848936, "longitude": 2.298386},
{ "name": "Étienne Marcel", "latitude": 48.863705, "longitude": 2.348986},
{ "name": "Palais-Royal Musée du Louvre - 5 - place Colette (Théatre de la Comédie Française - Théatre du Palais Royal)", "latitude": 48.863138, "longitude": 2.336029},
{ "name": "Pyramides - sortie 2 rue de l'échelle", "latitude": 48.865374, "longitude": 2.334415},
{ "name": "Pyramides - sortie 1 Avenue de l'Opéra", "latitude": 48.865443, "longitude": 2.334705},
{ "name": "Concorde - 3 - Rue Saint-Florentin", "latitude": 48.866504, "longitude": 2.323728},
{ "name": "Madeleine - Sortie 3 Rue Duphot", "latitude": 48.869365, "longitude": 2.325432},
{ "name": "Madeleine - Sortie 2 Église", "latitude": 48.869699, "longitude": 2.325264},
{ "name": "Quatre-Septembre - sortie", "latitude": 48.869565, "longitude": 2.335878},
{ "name": "Richelieu Drouot - sortie 7 - rue Marivaux (Opéra comique)", "latitude": 48.871496, "longitude": 2.337810},
{ "name": "Richelieu Drouot - sortie 2 - rue de Richelieu", "latitude": 48.871766, "longitude": 2.339383},
{ "name": "Grands Boulevards - sortie 3 - rue Montmartre", "latitude": 48.871457, "longitude": 2.342667},
{ "name": "Opéra - sortie 1 - place de l'Opéra (théâtre national de l'Opéra)", "latitude": 48.870896, "longitude": 2.332202},
{ "name": "Opéra - sortie 2 - rue de la Paix", "latitude": 48.870458, "longitude": 2.332388},
{ "name": "Grands Boulevards - sortie 5 - rue Saint-Fiacre", "latitude": 48.870994, "longitude": 2.345484},
{ "name": "Grands Boulevards - sortie 5 - rue Saint-Fiacre", "latitude": 48.870945, "longitude": 2.345769},
{ "name": "Grands Boulevards - sortie 4 - boulevard Poissonnière", "latitude": 48.871339, "longitude": 2.343443},
{ "name": "Bonne Nouvelle - sortie 1 - rue du Sentier", "latitude": 48.870656, "longitude": 2.347464},
{ "name": "Bonne Nouvelle - sortie 1 - rue du Sentier", "latitude": 48.870697, "longitude": 2.347261},
{ "name": "Réaumur - Sébastopol - sortie 3 - rue Saint-Denis", "latitude": 48.866602, "longitude": 2.350483},
{ "name": "Strasbourg - Saint-Denis - sortie 1 - boulevard de Sebastopol", "latitude": 48.869363, "longitude": 2.353682},
{ "name": "Strasbourg - Saint-Denis - sortie 5 - rue Saint-Denis", "latitude": 48.869548, "longitude": 2.352834},
{ "name": "Strasbourg - Saint-Denis - sortie 1 - boulevard de Sebastopol", "latitude": 48.869331, "longitude": 2.353826},
{ "name": "Bonne Nouvelle - sortie 5 - rue de la Lune", "latitude": 48.870040, "longitude": 2.350532},
{ "name": "Bonne Nouvelle - sortie 6 - boulevard de Bonne Nouvelle", "latitude": 48.870090, "longitude": 2.350300},
{ "name": "Hôtel de Ville - sortie 2 - Rue du Renard (Centre Georges Pompidou)", "latitude": 48.857664, "longitude": 2.351433},
{ "name": "Hôtel de Ville - sortie 5 - Hôtel de Ville", "latitude": 48.857080, "longitude": 2.352162},
{ "name": "Hôtel de Ville - sortie 4 - Avenue Victoria", "latitude": 48.857293, "longitude": 2.351226},
{ "name": "Rambuteau - sortie 2 rue Rambuteau", "latitude": 48.861269, "longitude": 2.353607},
{ "name": "Rambuteau - sortie 1 Centre Georges Pompidou", "latitude": 48.861401, "longitude": 2.353468},
{ "name": "Avenue Victoria", "latitude": 48.857342, "longitude": 2.348791},
{ "name": "Pont Marie - Ile St Louis", "latitude": 48.853635, "longitude": 2.357288},
{ "name": "Pont Marie - Quai de l'Hotel de Ville - Cité des Arts", "latitude": 48.853684, "longitude": 2.357150},
{ "name": "Théâtre de la Ville", "latitude": 48.857582, "longitude": 2.347918},
{ "name": "Censier Daubenton - sortie 2 - rue Monge", "latitude": 48.840442, "longitude": 2.351511},
{ "name": "Saint-Paul - sortie", "latitude": 48.855305, "longitude": 2.360121},
{ "name": "Saint-Paul - sortie", "latitude": 48.855267, "longitude": 2.360296},
{ "name": "Bastille - sortie 8 - boulevard Beaumarchais", "latitude": 48.853996, "longitude": 2.368710},
{ "name": "Sully-Morland - sortie 4 - rue des Célestins", "latitude": 48.852132, "longitude": 2.361214},
{ "name": "Sully-Morland - sortie 4 - rue des Célestins", "latitude": 48.852080, "longitude": 2.361297},
{ "name": "Bastille - sortie 6 - boulevard Henri IV", "latitude": 48.852613, "longitude": 2.367902},
{ "name": "Bastille - sortie 5 - boulevard Bourdon", "latitude": 48.852363, "longitude": 2.367807},
{ "name": "Arts et Métiers - 3 - Rue de Turbigo, Rue Beaubourg", "latitude": 48.865240, "longitude": 2.355479},
{ "name": "Arts et Métiers - 1- Rue Conté, Rue de Turbigo côté numéros impair", "latitude": 48.865681, "longitude": 2.356713},
{ "name": "Strasbourg - Saint-Denis - sortie 2 - rue Saint-Martin", "latitude": 48.869176, "longitude": 2.354523},
{ "name": "République - sortie 7 boulevard Saint-Martin", "latitude": 48.868015, "longitude": 2.361336},
{ "name": "Temple - 1 - Place Élisabeth Dmitrieff", "latitude": 48.866595, "longitude": 2.361514},
{ "name": "Arts et Métiers - 2 - Rue Réaumur, Rue de Turbigo côté numéros pairs", "latitude": 48.865445, "longitude": 2.356764},
{ "name": "République - sortie 2 rue du Temple", "latitude": 48.867053, "longitude": 2.363482},
{ "name": "République - sortie 10 square Henri Christiné", "latitude": 48.868082, "longitude": 2.363188},
{ "name": "République - sortie 4 rue du Faubourg du Temple", "latitude": 48.867900, "longitude": 2.364559},
{ "name": "République - sortie 8 boulevard Voltaire", "latitude": 48.866844, "longitude": 2.364923},
{ "name": "République - sortie 9 Avenue de la République", "latitude": 48.867459, "longitude": 2.364983},
{ "name": "République - sortie 5 boulevard de Magenta", "latitude": 48.868264, "longitude": 2.362509},
{ "name": "Filles du Calvaire - Bd des Filles du Calvaire Musée Picasso", "latitude": 48.863284, "longitude": 2.366468},
{ "name": "Filles du Calvaire - 2 - Rue Amelot Cirque d'Hiver", "latitude": 48.863413, "longitude": 2.366721},
{ "name": "Rue Froissart", "latitude": 48.861214, "longitude": 2.367039},
{ "name": "Chemin Vert - 1 - Boulevard Beaumarchais rue Saint-Gilles (Place des Vosges)", "latitude": 48.857439, "longitude": 2.367950},
{ "name": "Rue des Bluets", "latitude": 48.864153, "longitude": 2.380872},
{ "name": "Nationale - sortie 1 - Bd Vincent Auriol", "latitude": 48.832952, "longitude": 2.362086},
{ "name": "Bouche inconnue", "latitude": 48.833987, "longitude": 2.317892},
{ "name": "Solférino", "latitude": 48.857990, "longitude": 2.323388},
{ "name": "La Motte-Picquet - Grenelle - sortie 1 rue du commerce", "latitude": 48.849104, "longitude": 2.297775},
{ "name": "(La Chapelle) Sortie 2 rue du Faubourg Saint-Denis", "latitude": 48.884365, "longitude": 2.359661},
{ "name": "(La Chapelle) Sortie 1 rue Marx Dormoy", "latitude": 48.884457, "longitude": 2.359660},
{ "name": "Anvers", "latitude": 48.882883, "longitude": 2.344062},
{ "name": "Blanche - sortie", "latitude": 48.883706, "longitude": 2.332977},
{ "name": "Jaurès - sortie 5 - quai de Jemmapes", "latitude": 48.881606, "longitude": 2.370259},
{ "name": "Stalingrad -Accès - boulevard de la Chapelle", "latitude": 48.884333, "longitude": 2.365048},
{ "name": "Colonel Fabien - sortie", "latitude": 48.877523, "longitude": 2.370662},
{ "name": "Bellevile - 3 - Bd de la Villette", "latitude": 48.872486, "longitude": 2.376734},
{ "name": "Bellevile -5- Rue Faubourg du Temple", "latitude": 48.872102, "longitude": 2.376596},
{ "name": "Couronnes", "latitude": 48.869066, "longitude": 2.380386},
{ "name": "Bouche inconnue", "latitude": 48.866693, "longitude": 2.383247},
{ "name": "Père Lachaise - sortie 1 - boulevard de Ménilmontant", "latitude": 48.862662, "longitude": 2.387482},
{ "name": "Père Lachaise - sortie 1 - boulevard de Ménilmontant", "latitude": 48.862582, "longitude": 2.387525},
{ "name": "Odéon - sortie 2 - Carrefour de l'Odéon", "latitude": 48.852224, "longitude": 2.339328},
{ "name": "Odéon - sortie 2 - Carrefour de l'Odéon", "latitude": 48.852317, "longitude": 2.338939},
{ "name": "Odéon - sortie 1 - rue de l'École de Médecine", "latitude": 48.852131, "longitude": 2.339659},
{ "name": "Luxembourg", "latitude": 48.846739, "longitude": 2.340274},
{ "name": "Saint-Sulpice", "latitude": 48.851466, "longitude": 2.331138},
{ "name": "Rennes - sortie 1 - rue de Rennes", "latitude": 48.848203, "longitude": 2.327787},
{ "name": "Rennes - sortie 2 - boulevard Raspail", "latitude": 48.848432, "longitude": 2.327723},
{ "name": "Sèvres Babylone - sortie 2 - rue Velpeau", "latitude": 48.850926, "longitude": 2.325397},
{ "name": "Notre-Dame-des-Champs - sortie 1 rue Notre-Dame des Champs", "latitude": 48.844538, "longitude": 2.328845},
{ "name": "Notre-Dame-des-Champs - sortie 2 rue de Rennes", "latitude": 48.844775, "longitude": 2.328779},
{ "name": "Saint-Lazare - sortie 1 cour de Rome", "latitude": 48.875630, "longitude": 2.324132},
{ "name": "Boulevard du Montparnasse", "latitude": 48.842131, "longitude": 2.328826},
{ "name": "Rue Delambre", "latitude": 48.842103, "longitude": 2.328910},
{ "name": "Rue Vavin", "latitude": 48.842352, "longitude": 2.328884},
{ "name": "Boulevard Raspail", "latitude": 48.842271, "longitude": 2.329125},
{ "name": "Montparnasse Bienvenüe - sortie 5 - boulevard Montparnasse", "latitude": 48.843657, "longitude": 2.324923},
{ "name": "Montparnasse Bienvenüe - sortie 5 - boulevard du Montparnasse", "latitude": 48.843725, "longitude": 2.324715},
{ "name": "Edgar Quinet", "latitude": 48.841136, "longitude": 2.325000},
{ "name": "Montparnasse Bienvenüe - sortie 6 - rue d'Odessa", "latitude": 48.843386, "longitude": 2.324486},
{ "name": "Sortie 3 - Avenue de la Porte de Clichy", "latitude": 48.894820, "longitude": 2.313979},
{ "name": "Sortie 2 - Boulevard Bessières", "latitude": 48.894420, "longitude": 2.314252},
{ "name": "Duroc - sortie 3 place Léon-Paul Fargue", "latitude": 48.846859, "longitude": 2.317118},
{ "name": "Duroc - sortie 4 boulevard de Montparnasse", "latitude": 48.846662, "longitude": 2.316660},
{ "name": "Duroc - sortie 1 boulevard des Invalides", "latitude": 48.847012, "longitude": 2.316321},
{ "name": "Duroc - sortie 2 rue de Sèvres", "latitude": 48.847069, "longitude": 2.316878},
{ "name": "Mabillon - sortie 1 rue de Montfaucon", "latitude": 48.852921, "longitude": 2.335768},
{ "name": "Champs-Élysées Clemenceau - sortie", "latitude": 48.867474, "longitude": 2.313262},
{ "name": "Saint-Philippe du Roule - sortie 2 - avenue Franklin D. Roosevelt", "latitude": 48.872362, "longitude": 2.309950},
{ "name": "Saint-Philippe du Roule - sortie 1 : rue La Boétie", "latitude": 48.872481, "longitude": 2.310149},
{ "name": "Saint-Philippe du Roule - sortie 2 - avenue Franklin D. Roosevelt", "latitude": 48.872293, "longitude": 2.309950},
{ "name": "Miromesnil - Sortie 2 - Avenue Delcassé côté des n° impairs, rue de La Boétie", "latitude": 48.873570, "longitude": 2.314317},
{ "name": "Miromesnil - Sortie 1 - Avenue Percier côté des n° impairs, rue de La Boétie", "latitude": 48.873755, "longitude": 2.314347},
{ "name": "Miromesnil - Sortie 3 - Rue de La Boétie côté des n° impairs", "latitude": 48.873830, "longitude": 2.315773},
{ "name": "Miromesnil - Sortie - Rue de La Boétie côté des n° impairs", "latitude": 48.873812, "longitude": 2.315673},
{ "name": "Madeleine - Sortie 4 Rue de Sèze", "latitude": 48.870998, "longitude": 2.325304},
{ "name": "Madeleine - Sortie 5 Rue Tronchet", "latitude": 48.871150, "longitude": 2.325143},
{ "name": "Madeleine - Sortie 4 Rue de Sèze", "latitude": 48.871072, "longitude": 2.325358},
{ "name": "Saint-Augustin", "latitude": 48.874458, "longitude": 2.321256},
{ "name": "Saint-Lazare - sortie 7 rue de l'Arcade", "latitude": 48.874743, "longitude": 2.324685},
{ "name": "Saint-Augustin", "latitude": 48.874595, "longitude": 2.321544},
{ "name": "Saint-Augustin - 1 - Boulevard Malesherbes", "latitude": 48.874446, "longitude": 2.321354},
{ "name": "Saint-Augustin - 2 - Boulevard Haussmann Église Saint-Augustin", "latitude": 48.874621, "longitude": 2.321338},
{ "name": "Saint-Lazare - sortie 6 place Gabriel Péri", "latitude": 48.875049, "longitude": 2.324867},
{ "name": "Saint-Lazare - sortie 2 place du Havre", "latitude": 48.875370, "longitude": 2.326370},
{ "name": "Saint-Lazare - sortie 2 place du Havre", "latitude": 48.875356, "longitude": 2.326405},
{ "name": "Saint-Lazare - sortie 3 passage du Havre", "latitude": 48.875447, "longitude": 2.326878},
{ "name": "Saint-Lazare - sortie 3 passage du Havre", "latitude": 48.875395, "longitude": 2.326823},
{ "name": "Havre - Caumartin - 1- Rue du Havre", "latitude": 48.873747, "longitude": 2.327898},
{ "name": "Havre - Caumartin - 3 - Rue Auber", "latitude": 48.873566, "longitude": 2.327907},
{ "name": "Saint-Lazare - sortie 8 rue d'Amsterdam", "latitude": 48.875896, "longitude": 2.326708},
{ "name": "Liège", "latitude": 48.879601, "longitude": 2.326793},
{ "name": "Place de Clichy - 3 - Rue Caulaincourt", "latitude": 48.884269, "longitude": 2.329045},
{ "name": "Sortie 2 - Boulevard de Batignolles", "latitude": 48.881153, "longitude": 2.316140},
{ "name": "Sortie 1 - Avenue de Villiers", "latitude": 48.881378, "longitude": 2.315406},
{ "name": "Sortie 3 - Boulevard de Courcelles (Parc Monceau)", "latitude": 48.880913, "longitude": 2.314117},
{ "name": "Monceau", "latitude": 48.880376, "longitude": 2.309439},
{ "name": "Bouche inconnue", "latitude": 48.872869, "longitude": 2.329994},
{ "name": "Sortie 1 Rue Auber (Opéra Garnier)", "latitude": 48.872404, "longitude": 2.329775},
{ "name": "2 - Boulevard Jourdan", "latitude": 48.823184, "longitude": 2.326192},
{ "name": "Sortie 3 Boulevard Brune", "latitude": 48.823391, "longitude": 2.325266},
{ "name": "Porte d'Orléans - sortie 4 avenue de la Porte d'Orléans", "latitude": 48.822986, "longitude": 2.324961},
{ "name": "Charles de Gaulle - Étoile - sortie 3 - avenue Hoche", "latitude": 48.874567, "longitude": 2.295934},
{ "name": "Courcelles -2- Rue de Chazelles", "latitude": 48.879367, "longitude": 2.303456},
{ "name": "Courcelles-1- Bd de Courcelles Parc de Monceau", "latitude": 48.879140, "longitude": 2.303677},
{ "name": "Franklin D. Roosevelt - sortie 1 - Champs-Élysées", "latitude": 48.870001, "longitude": 2.307479},
{ "name": "Franklin D. Roosevelt - sortie 1 - Champs-Élysées", "latitude": 48.870102, "longitude": 2.307165},
{ "name": "Franklin D. Roosevelt - sortie 2", "latitude": 48.869797, "longitude": 2.306935},
{ "name": "Franklin D. Roosevelt - sortie 2", "latitude": 48.869698, "longitude": 2.307253},
{ "name": "George V - 2 - Avenue George V", "latitude": 48.871830, "longitude": 2.300542},
{ "name": "George V - 1 - Champs-Élysées", "latitude": 48.872207, "longitude": 2.300610},
{ "name": "Franklin D. Roosevelt - sortie 3 - avenue Montaigne", "latitude": 48.868376, "longitude": 2.309190},
{ "name": "Franklin D. Roosevelt - sortie 5 - avenue Franklin D. Roosevelt (Palais de la Découverte)", "latitude": 48.868490, "longitude": 2.309527},
{ "name": "Franklin D. Roosevelt - sortie 4 - Rond-Point", "latitude": 48.868711, "longitude": 2.309262},
{ "name": "Saint-Lazare - sortie 3 passage du Havre", "latitude": 48.875383, "longitude": 2.326894},
{ "name": "Palais-Royal Musée du Louvre - 6 - rue de Rivoli", "latitude": 48.862485, "longitude": 2.335636},
{ "name": "Tuileries", "latitude": 48.864288, "longitude": 2.330100},
{ "name": "Tuileries - sortie", "latitude": 48.864248, "longitude": 2.330226},
{ "name": "Pont Neuf (quai de Louvre)", "latitude": 48.858480, "longitude": 2.342144},
{ "name": "Louvre — Rivoli", "latitude": 48.860693, "longitude": 2.340886},
{ "name": "Alma Marceau", "latitude": 48.864909, "longitude": 2.301715},
{ "name": "Alma Marceau", "latitude": 48.864423, "longitude": 2.300840},
{ "name": "Alma Marceau", "latitude": 48.865062, "longitude": 2.300528},
{ "name": "Alma Marceau", "latitude": 48.865045, "longitude": 2.300514},
{ "name": "Charles de Gaulle - Étoile - sortie 2 - avenue de Friedland", "latitude": 48.874184, "longitude": 2.296403},
{ "name": "Charles de Gaulle - Étoile - sortie 9 - rue Beaujon", "latitude": 48.875249, "longitude": 2.296296},
{ "name": "Charles de Gaulle - Étoile - sortie 9 - rue Beaujon", "latitude": 48.875216, "longitude": 2.296272},
{ "name": "Charles de Gaulle-Étoile - sortie 2 - avenue de Friedland", "latitude": 48.874063, "longitude": 2.296966},
{ "name": "Sortie 3 - Boulevard de Courcelles", "latitude": 48.878405, "longitude": 2.298978},
{ "name": "Sortie 1 - Avenue des Ternes", "latitude": 48.878225, "longitude": 2.297622},
{ "name": "Sortie 2 - place des Ternes (salle Pleyel)", "latitude": 48.878049, "longitude": 2.298279},
{ "name": "Haussmann Saint-Lazare RER - Rue du Havre", "latitude": 48.874709, "longitude": 2.326667},
{ "name": "Porte d'Ivry - 3 - av. de la Porte d'Ivry", "latitude": 48.821339, "longitude": 2.369346},
{ "name": "Entrée RER Victor Hugo", "latitude": 48.887521, "longitude": 2.172788},
{ "name": "Nanterre Université", "latitude": 48.901385, "longitude": 2.213305},
{ "name": "Bouche inconnue", "latitude": 48.880930, "longitude": 2.357652},
{ "name": "(Charles de Gaulle-Étoile) Sortie 1 Champs Élysées (Arc de Triomphe)", "latitude": 48.873457, "longitude": 2.297055},
{ "name": "Vaneau - Sortie 1", "latitude": 48.848785, "longitude": 2.321049},
{ "name": "Glacière - sortie", "latitude": 48.831341, "longitude": 2.342768},
{ "name": "République - sortie 6 rue René Boulanger", "latitude": 48.868156, "longitude": 2.361648},
{ "name": "Iéna", "latitude": 48.864401, "longitude": 2.293830},
{ "name": "Iéna", "latitude": 48.864606, "longitude": 2.294315},
{ "name": "Boissière", "latitude": 48.866968, "longitude": 2.290236},
{ "name": "Place Denfert-Rochereau - Les Catacombes", "latitude": 48.833249, "longitude": 2.333618},
{ "name": "Iéna", "latitude": 48.865067, "longitude": 2.293881},
{ "name": "Sortie 5 - Cimetière de Passy", "latitude": 48.862411, "longitude": 2.286649},
{ "name": "Sortie 2 - Avenue Kleber", "latitude": 48.863576, "longitude": 2.287324},
{ "name": "Victor Hugo - sortie 2 - avenue Raymond Poincaré", "latitude": 48.870020, "longitude": 2.285501},
{ "name": "Victor Hugo - sortie 1 - avenue Victor Hugo", "latitude": 48.869963, "longitude": 2.285612},
{ "name": "Charles de Gaulle - Étoile - sortie 8 - avenue Foch", "latitude": 48.873664, "longitude": 2.292439},
{ "name": "Charles de Gaulle - Étoile - sortie 7 - Rue de Presbourg", "latitude": 48.874054, "longitude": 2.293149},
{ "name": "Argentine - sortie 2 Avenue de la Grande Armée", "latitude": 48.875445, "longitude": 2.289295},
{ "name": "Porte Maillot - sortie 5 - Avenue de Malakoff", "latitude": 48.877025, "longitude": 2.284243},
{ "name": "Sortie 4 - avenue Bugeaud", "latitude": 48.871387, "longitude": 2.277946},
{ "name": "Sortie 2 - avenue Foch", "latitude": 48.871677, "longitude": 2.277215},
{ "name": "Sortie 1 - boulevard Lannes", "latitude": 48.871419, "longitude": 2.276794},
{ "name": "Porte Maillot - sortie 4 - Avenue de la Grande Armée", "latitude": 48.877326, "longitude": 2.284460},
{ "name": "Porte Maillot - sortie 6 - Boulevard André Maurois", "latitude": 48.878375, "longitude": 2.280005},
{ "name": "Porte Maillot - sortie 7 - Rue de Chartres", "latitude": 48.878674, "longitude": 2.280223},
{ "name": "Porte Maillot - sortie 3 - Terre-plein central", "latitude": 48.877858, "longitude": 2.283174},
{ "name": "Rue de la Pompe", "latitude": 48.864129, "longitude": 2.277988},
{ "name": "Rue de la Pompe", "latitude": 48.864116, "longitude": 2.278091},
{ "name": "Rue de la Pompe", "latitude": 48.864046, "longitude": 2.278903},
{ "name": "Nanterre Ville - 3 - Rue Maurice Thorez", "latitude": 48.895157, "longitude": 2.195811},
{ "name": "La Muette - sortie 2 - Avenue Mozart", "latitude": 48.857937, "longitude": 2.274214},
{ "name": "La Muette - sortie 1 - Chaussée de la Muette", "latitude": 48.858085, "longitude": 2.274121},
{ "name": "Cadet", "latitude": 48.876047, "longitude": 2.344065},
{ "name": "Ranelagh", "latitude": 48.855408, "longitude": 2.270185},
{ "name": "Ranelagh", "latitude": 48.855473, "longitude": 2.270031},
{ "name": "Étienne Dolet", "latitude": 48.815231, "longitude": 2.297355},
{ "name": "Gare d'Austerlitz - sortie 3- rue Nicolas Houel", "latitude": 48.842791, "longitude": 2.363751},
{ "name": "Gare d'Austerlitz - sortie 2 - rue Buffon", "latitude": 48.842949, "longitude": 2.363868},
{ "name": "Bourse - sortie 1 - palais Brongniart", "latitude": 48.868951, "longitude": 2.340720},
{ "name": "Billancourt - sortie 3 rue Castéja", "latitude": 48.831222, "longitude": 2.236341},
{ "name": "Jasmin", "latitude": 48.852502, "longitude": 2.268076},
{ "name": "Jasmin", "latitude": 48.852362, "longitude": 2.268194},
{ "name": "Place Théodore Rivière", "latitude": 48.847268, "longitude": 2.268597},
{ "name": "Place Marcel Sembat", "latitude": 48.833621, "longitude": 2.243978},
{ "name": "Rue des Quatre Cheminées Patinoire Municipale", "latitude": 48.833379, "longitude": 2.243168},
{ "name": "Avenue André Morizet", "latitude": 48.833616, "longitude": 2.242997},
{ "name": "Marcel Sembat", "latitude": 48.833931, "longitude": 2.243868},
{ "name": "Place Jean Lorrain", "latitude": 48.847892, "longitude": 2.264298},
{ "name": "Rue d'Auteuil (escalator)", "latitude": 48.847944, "longitude": 2.263745},
{ "name": "Rue d'Auteuil", "latitude": 48.848072, "longitude": 2.260039},
{ "name": "Rue Rieux", "latitude": 48.834508, "longitude": 2.246083},
{ "name": "Rue Danjou", "latitude": 48.834378, "longitude": 2.246232},
{ "name": "Rue du Château", "latitude": 48.842313, "longitude": 2.240131},
{ "name": "Boulevard Murat Parc des Princes - Roland Garros", "latitude": 48.847610, "longitude": 2.257891},
{ "name": "Chardon Lagache", "latitude": 48.845035, "longitude": 2.266486},
{ "name": "Boulogne - Pont de Saint-Cloud", "latitude": 48.840776, "longitude": 2.227441},
{ "name": "Avenue du Maréchal De Lattre de Tassigny", "latitude": 48.840755, "longitude": 2.227595},
{ "name": "Rue Mirabeau", "latitude": 48.846996, "longitude": 2.272549},
{ "name": "Avenue de Versailles", "latitude": 48.847178, "longitude": 2.273223},
{ "name": "Mirabeau", "latitude": 48.846971, "longitude": 2.272470},
{ "name": "Jourdain - 3 - Rue de Belleville", "latitude": 48.875160, "longitude": 2.389596},
{ "name": "Jourdain - 1 - Rue du Jourdain", "latitude": 48.874894, "longitude": 2.389312},
{ "name": "Jourdain - 2 - Rue Lassus", "latitude": 48.875183, "longitude": 2.389086},
{ "name": "Route de la Reine", "latitude": 48.840535, "longitude": 2.229327},
{ "name": "Quai Alphonse Le Gallo Sous-Préfecture des Hauts-de-Seine", "latitude": 48.830072, "longitude": 2.229914},
{ "name": "Billancourt - sortie 1 rue de la Ferme", "latitude": 48.831897, "longitude": 2.238436},
{ "name": "Billancourt - sortie 1 rue de la Ferme", "latitude": 48.831978, "longitude": 2.238697},
{ "name": "Bouche inconnue", "latitude": 48.887335, "longitude": 2.349770},
{ "name": "Chevaleret -sortie 2- Rue du Chevaleret", "latitude": 48.834685, "longitude": 2.367411},
{ "name": "Concorde- 1 - Jeu de Paume Jardin des Tuileries", "latitude": 48.866225, "longitude": 2.323445},
{ "name": "Sortie 3 rue du faubourg Poissonnière", "latitude": 48.877214, "longitude": 2.349303},
{ "name": "Hôpital Saint-Louis", "latitude": 48.870239, "longitude": 2.370966},
{ "name": "r. du Fbg du Temple", "latitude": 48.870120, "longitude": 2.370847},
{ "name": "r. des Goncourt", "latitude": 48.869890, "longitude": 2.371223},
{ "name": "av. Parmentier", "latitude": 48.869836, "longitude": 2.371056},
{ "name": "Porte de Champerret- 2 - Av Stéphane Mallarmé Espace Champerret", "latitude": 48.885747, "longitude": 2.292584},
{ "name": "Porte de Champerret -1- Place Stuart Merrill", "latitude": 48.885635, "longitude": 2.292726},
{ "name": "Porte de Champerret", "latitude": 48.885715, "longitude": 2.292758},
{ "name": "Boulevard Diderot", "latitude": 48.848036, "longitude": 2.395029},
{ "name": "Exelmans - sortie 2 - rue Michel-Ange", "latitude": 48.843018, "longitude": 2.259914},
{ "name": "Exelmans - sortie 1 - boulevard Exelmans", "latitude": 48.842872, "longitude": 2.260163},
{ "name": "Michel-Ange - Molitor", "latitude": 48.845175, "longitude": 2.261658},
{ "name": "Sortie 1 rue La Fayette", "latitude": 48.877317, "longitude": 2.349133},
{ "name": "Sortie 2 rue de Chabrol", "latitude": 48.877254, "longitude": 2.349458},
{ "name": "Parc des Princes", "latitude": 48.838494, "longitude": 2.255629},
{ "name": "Bellevile - 4 - Terre-plein central du Bd de la Villette", "latitude": 48.872212, "longitude": 2.376837},
{ "name": "Porte de Saint-Cloud - Sortie 6 - Boulevard Murat", "latitude": 48.838548, "longitude": 2.256744},
{ "name": "Porte de Saint-Cloud", "latitude": 48.837939, "longitude": 2.256093},
{ "name": "Avenue Édouard Vaillant Boulogne-Billancourt", "latitude": 48.837612, "longitude": 2.256045},
{ "name": "Avenue Édouard Vaillant Boulogne-Billancourt", "latitude": 48.837825, "longitude": 2.255738},
{ "name": "Avenue Édouard Vaillant Boulogne-Billancourt", "latitude": 48.837393, "longitude": 2.255912},
{ "name": "Porte de Saint-Cloud", "latitude": 48.837626, "longitude": 2.256081},
{ "name": "(Porte de Montreuil) Sortie 2 Boulevard Davout", "latitude": 48.853703, "longitude": 2.410967},
{ "name": "Saint-Mandé — Tourelle", "latitude": 48.846724, "longitude": 2.417200},
{ "name": "Rue Gudin", "latitude": 48.838009, "longitude": 2.257996},
{ "name": "Avenue de Versailles", "latitude": 48.838200, "longitude": 2.257758},
{ "name": "Avenue Georges Lafont Stade Pierre de Coubertin", "latitude": 48.837166, "longitude": 2.256836},
{ "name": "Rue de la Ferronnerie", "latitude": 48.860312, "longitude": 2.346689},
{ "name": "Exelmans - sortie 3 - rue Claude Lorrain", "latitude": 48.841865, "longitude": 2.259244},
{ "name": "Billancourt - sortie 4 rue de Silly", "latitude": 48.831468, "longitude": 2.236158},
{ "name": "Buzenval - sortie 1 - rue de Buzenval", "latitude": 48.851949, "longitude": 2.401170},
{ "name": "Saint-Mandé - Tourelle", "latitude": 48.846336, "longitude": 2.420324},
{ "name": "Saint-Michel", "latitude": 48.853219, "longitude": 2.345864},
{ "name": "Quai Saint-Michel (Notre-Dame)", "latitude": 48.853499, "longitude": 2.344470},
{ "name": "Cluny-La Sorbonne - sortie", "latitude": 48.850986, "longitude": 2.345198},
{ "name": "Place Saint-Michel", "latitude": 48.853265, "longitude": 2.344230},
{ "name": "2 - Boulevard Saint-Germain (musée du Moyen-Âge)", "latitude": 48.851296, "longitude": 2.343497},
{ "name": "Boulevard de Magenta", "latitude": 48.876048, "longitude": 2.357695},
{ "name": "Rue du Faubourg Saint-Martin", "latitude": 48.875965, "longitude": 2.358865},
{ "name": "Terre-plein", "latitude": 48.875998, "longitude": 2.357992},
{ "name": "Boulevard de Strasbourg", "latitude": 48.875970, "longitude": 2.358346},
{ "name": "Concorde - 2 - Rue de Rivoli", "latitude": 48.866255, "longitude": 2.323550},
{ "name": "Concorde - 4 - Musée de l'Orangerie Jardin des Tuileries", "latitude": 48.865345, "longitude": 2.322665},
{ "name": "Laumière -2- Av de Laumière", "latitude": 48.885021, "longitude": 2.379637},
{ "name": "Laumière -3- Rue de Meaux", "latitude": 48.884943, "longitude": 2.379448},
{ "name": "Laumière -1- Avenue Jean Jaurès Gymnase", "latitude": 48.885347, "longitude": 2.379622},
{ "name": "Maubert Mutualité - 3 - Rue des Carmes", "latitude": 48.850145, "longitude": 2.347912},
{ "name": "Maubert Mutualité- 2 - Place Maubert", "latitude": 48.850029, "longitude": 2.348290},
{ "name": "Maubert Mutualité -1- Rue Lagrange", "latitude": 48.850260, "longitude": 2.348182},
{ "name": "Maubert Mutualité", "latitude": 48.849917, "longitude": 2.348247},
{ "name": "Nanterre Université SNCF", "latitude": 48.900947, "longitude": 2.210941},
{ "name": "Bourse - sortie 2 - rue Notre-Dame des Victoires", "latitude": 48.868736, "longitude": 2.341822},
{ "name": "Luxembourg", "latitude": 48.844293, "longitude": 2.339308},
{ "name": "Solférino", "latitude": 48.858783, "longitude": 2.322522},
{ "name": "Cardinal Lemoine - sortie 1 - rue Cardinal Lemoine", "latitude": 48.846569, "longitude": 2.351835},
{ "name": "Cardinal Lemoine - sortie 2 - rue Monge", "latitude": 48.846603, "longitude": 2.351472},
{ "name": "Place Monge - sortie 1 - place Monge", "latitude": 48.843123, "longitude": 2.352031},
{ "name": "Sortie 5 - Place Édith Piaf", "latitude": 48.864721, "longitude": 2.405412},
{ "name": "Entrée RER Deux Gares", "latitude": 48.887296, "longitude": 2.170390},
{ "name": "Nanterre Ville - 2 - Bd du Couchant", "latitude": 48.894942, "longitude": 2.195177},
{ "name": "Nanterre Ville", "latitude": 48.895596, "longitude": 2.195788},
{ "name": "Nanterre Ville - 1- Bd de la Seine", "latitude": 48.895542, "longitude": 2.195898},
{ "name": "Hippodrome", "latitude": 48.848366, "longitude": 2.256947},
{ "name": "Sortie 2 - Disney Village", "latitude": 48.869805, "longitude": 2.782717},
{ "name": "Sortie 1 - Parc Disneyland", "latitude": 48.869862, "longitude": 2.781907},
{ "name": "École Militaire", "latitude": 48.854717, "longitude": 2.305996},
{ "name": "École Militaire", "latitude": 48.854646, "longitude": 2.306282},
{ "name": "Boulevard Edgar Quinet Cimetière du Montparnasse", "latitude": 48.838949, "longitude": 2.330573},
{ "name": "Rue Campagne Première", "latitude": 48.839023, "longitude": 2.330892},
{ "name": "La Tour Maubourg", "latitude": 48.857768, "longitude": 2.310214},
{ "name": "Invalides", "latitude": 48.860920, "longitude": 2.314508},
{ "name": "Varenne", "latitude": 48.856835, "longitude": 2.315267},
{ "name": "Bouche inconnue", "latitude": 48.805039, "longitude": 2.485631},
{ "name": "Bouche inconnue", "latitude": 48.805260, "longitude": 2.485018},
{ "name": "Rue des Frères Morane", "latitude": 48.842646, "longitude": 2.292009},
{ "name": "Place Étienne Pernet", "latitude": 48.842839, "longitude": 2.291884},
{ "name": "Avenue Félix Faure", "latitude": 48.842706, "longitude": 2.291588},
{ "name": "Sortie 2 Rue Pierre Vermeir", "latitude": 48.739694, "longitude": 2.287387},
{ "name": "Strasbourg - Saint-Denis - sortie 7 - passage du Prado", "latitude": 48.869543, "longitude": 2.353702},
{ "name": "Bonne Nouvelle - sortie 3 - rue d'Hauteville", "latitude": 48.870268, "longitude": 2.350401},
{ "name": "Strasbourg - Saint-Denis - sortie 3 - Porte Saint-Denis", "latitude": 48.869347, "longitude": 2.354599},
{ "name": "Strasbourg - Saint-Denis - sortie 6 - boulevard de Strasbourg", "latitude": 48.869497, "longitude": 2.353910},
{ "name": "Bonne Nouvelle - sortie 2 - rue du Faubourg Poissonière", "latitude": 48.870917, "longitude": 2.347113},
{ "name": "Bonne Nouvelle - sortie 4 - rue de Mazagran", "latitude": 48.870221, "longitude": 2.350621},
{ "name": "Strasbourg - Saint-Denis - sortie 4 - boulevard de Bonne Nouvelle", "latitude": 48.869896, "longitude": 2.352111},
{ "name": "Rue Ernest Renan", "latitude": 48.827253, "longitude": 2.279077},
{ "name": "Pont de l'Alma", "latitude": 48.862564, "longitude": 2.301008},
{ "name": "Chaussée d'Antin - La Fayette - sortie 1 - Grands Magasins (Galeries Lafayette)", "latitude": 48.873143, "longitude": 2.333089},
{ "name": "Auber", "latitude": 48.873555, "longitude": 2.329326},
{ "name": "Havre - Caumartin - 4 - Rue de Caumartin", "latitude": 48.873492, "longitude": 2.328515},
{ "name": "Auber - 2 - Place Diaghilev", "latitude": 48.873305, "longitude": 2.329878},
{ "name": "Chaussée d'Antin - La Fayette - sortie 4 - boulevard Haussmann", "latitude": 48.873011, "longitude": 2.333451},
{ "name": "Chaussée d'Antin - La Fayette - sortie 1 - Grands Magasins (Galeries Lafayette)", "latitude": 48.873096, "longitude": 2.332765},
{ "name": "Chaussée d'Antin - La Fayette - sortie 5 - rue de la Chaussée d'Antin", "latitude": 48.872801, "longitude": 2.333653},
{ "name": "Auber - 5 - Haussmann - Charras Grands Magasins", "latitude": 48.873522, "longitude": 2.329567},
{ "name": "Havre - Caumartin - 2 - Bd Haussmann Grands Magasins", "latitude": 48.873652, "longitude": 2.328600},
{ "name": "Chaussée d'Antin - La Fayette - sortie 2 - rue La Fayette", "latitude": 48.873202, "longitude": 2.333326},
{ "name": "Auber - 3 - Rue des Mathurins", "latitude": 48.873264, "longitude": 2.330184},
{ "name": "Chaussée d'Antin - La Fayette - sortie 3 - rue Halévy", "latitude": 48.872927, "longitude": 2.332708},
{ "name": "Opéra - sortie 3 - rue Scribe", "latitude": 48.871560, "longitude": 2.330630},
{ "name": "Chaussée d'Antin - La Fayette - sortie 6 - rue Taitbout", "latitude": 48.872777, "longitude": 2.335088},
{ "name": "Richelieu Drouot - sortie 3 - boulevard Montmartre", "latitude": 48.872121, "longitude": 2.339804},
{ "name": "Richelieu Drouot - sortie 1 - boulevard Haussmann", "latitude": 48.871987, "longitude": 2.339078},
{ "name": "Richelieu Drouot - sortie 8 - boulevard des Italiens", "latitude": 48.871845, "longitude": 2.338567},
{ "name": "Richelieu Drouot - sortie 4 - rue Chauchat", "latitude": 48.872221, "longitude": 2.339045},
{ "name": "Richelieu Drouot - sortie 6 - rue Taitbout", "latitude": 48.871655, "longitude": 2.337553},
{ "name": "Richelieu Drouot - sortie 5 - rue Laffitte", "latitude": 48.872206, "longitude": 2.337958},
{ "name": "Le Peletier - sortie", "latitude": 48.874991, "longitude": 2.340171},
{ "name": "Trinité d'Estienne d'Orves", "latitude": 48.876589, "longitude": 2.332456},
{ "name": "Trinité d'Estienne d'Orves - 1- Place d'Estienne d'Orves", "latitude": 48.876520, "longitude": 2.332479},
{ "name": "Saint-Georges - 1 - Place Saint-Georges", "latitude": 48.878481, "longitude": 2.337800},
{ "name": "Saint-Georges - 2 - Rue Notre-Dame-de-Lorette", "latitude": 48.878299, "longitude": 2.337355},
{ "name": "Trinité d'Estienne d'Orves - 2 - Rue de Châteaudun", "latitude": 48.876336, "longitude": 2.333869},
{ "name": "Sortie 2 - Bd de Magenta", "latitude": 48.883642, "longitude": 2.349139},
{ "name": "Sortie 1 - Bd de Rochechouart", "latitude": 48.883727, "longitude": 2.349115},
{ "name": "Palais des sports (Parc des expositions Hall 1)", "latitude": 48.832236, "longitude": 2.287308},
{ "name": "Sortie 1 av. Ernest Renan (Parc des expositions Halls 2 à 8)", "latitude": 48.832056, "longitude": 2.287741},
{ "name": "Grands Boulevards - sortie 6 - rue de Rougemont", "latitude": 48.871173, "longitude": 2.345549},
{ "name": "Grands Boulevards - sortie 6 - rue de Rougemont", "latitude": 48.871124, "longitude": 2.345864},
{ "name": "Grands Boulevards - sortie 2 - boulevard Montmartre (Musée Grévin)", "latitude": 48.871641, "longitude": 2.342761},
{ "name": "Grands Boulevards - sortie 1 - rue du Fbg Montmartre", "latitude": 48.871500, "longitude": 2.343591},
{ "name": "École Vétérinaire de Maisons-Alfort - sortie 1 carrefour de la résistance", "latitude": 48.814918, "longitude": 2.422326},
{ "name": "École Vétérinaire de Maisons-Alfort - sortie 3 avenue du général Leclerc", "latitude": 48.814573, "longitude": 2.422581},
{ "name": "Maréchaux", "latitude": 48.844341, "longitude": 2.439924},
{ "name": "Marigny", "latitude": 48.844545, "longitude": 2.440424},
{ "name": "Bois de Vincennes", "latitude": 48.844537, "longitude": 2.440533},
{ "name": "Avenue de Suffren UNESCO - Fontenoy", "latitude": 48.847072, "longitude": 2.307633},
{ "name": "Boulevard Garibaldi UNESCO - Miollis", "latitude": 48.846992, "longitude": 2.307394},
{ "name": "Daumesnil - Sortie - rue de Reuilly", "latitude": 48.840167, "longitude": 2.394845},
{ "name": "1 - Courbevoie (Quartier Iris)", "latitude": 48.888404, "longitude": 2.249519},
{ "name": "Daumesnil - sortie - rue Claude Decaen, côté des n° impairs", "latitude": 48.839320, "longitude": 2.395576},
{ "name": "Daumesnil - sortie - avenue Daumesnil, face au n° 199", "latitude": 48.839407, "longitude": 2.396560},
{ "name": "Plaisance - sortie 1 - rue des Suisses", "latitude": 48.831695, "longitude": 2.314375},
{ "name": "Plaisance - sortie 2 - rue d'Alésia", "latitude": 48.831804, "longitude": 2.314487},
{ "name": "Sortie 4 Fort Neuf", "latitude": 48.844228, "longitude": 2.440486},
{ "name": "Château de Vincennes", "latitude": 48.844631, "longitude": 2.437216},
{ "name": "Avenue de Paris", "latitude": 48.844831, "longitude": 2.437101},
{ "name": "Saint-Mandé - Tourelle", "latitude": 48.846151, "longitude": 2.420178},
{ "name": "Liberté - sortie Rue de Paris - côté numéro pairs - Avenue de la Liberté", "latitude": 48.826101, "longitude": 2.406748},
{ "name": "Liberté - sortie Rue de Paris - côté numéro impairs - Avenue de la Liberté", "latitude": 48.825972, "longitude": 2.406566},
{ "name": "Château d'Eau", "latitude": 48.872514, "longitude": 2.355905},
{ "name": "Château d'Eau", "latitude": 48.872467, "longitude": 2.355880},
{ "name": "Pont de Levallois", "latitude": 48.897892, "longitude": 2.279600},
{ "name": "Pont de Levallois - 1 - Place du Maréchal Juin", "latitude": 48.897968, "longitude": 2.279914},
{ "name": "Forum - Porte Rambuteau", "latitude": 48.862616, "longitude": 2.347044},
{ "name": "Louis Blanc", "latitude": 48.881378, "longitude": 2.365295},
{ "name": "sortie 1 Rue de Paris", "latitude": 48.879797, "longitude": 2.416523},
{ "name": "Bouche inconnue", "latitude": 48.879650, "longitude": 2.356109},
{ "name": "Gambetta - sortie 2 - place Gambetta", "latitude": 48.865209, "longitude": 2.398536},
{ "name": "Gambetta - sortie 3 - Père Lachaise", "latitude": 48.864595, "longitude": 2.398453},
{ "name": "Gambetta - sortie 1 - Mairie du 20ième (Hôpital)", "latitude": 48.864963, "longitude": 2.398933},
{ "name": "Boulevard de Magenta", "latitude": 48.870889, "longitude": 2.361152},
{ "name": "Pyrénées - 1 - Rue des Pyrénées", "latitude": 48.873959, "longitude": 2.385903},
{ "name": "Pyrénées - 2- Rue de Belleville", "latitude": 48.873855, "longitude": 2.385570},
{ "name": "Pyrénées - 4 - Rue Clavel", "latitude": 48.873993, "longitude": 2.385127},
{ "name": "Rue du Faubourg Saint-Martin", "latitude": 48.875932, "longitude": 2.359060},
{ "name": "Boulevard Voltaire", "latitude": 48.848793, "longitude": 2.394989},
{ "name": "Télégraphe- 1- Rue du Télégraphe", "latitude": 48.875376, "longitude": 2.398772},
{ "name": "Oberkampf - sortie 4 - rue Oberkampf", "latitude": 48.863943, "longitude": 2.369998},
{ "name": "Père Lachaise - sortie 2 - avenue de la République", "latitude": 48.863190, "longitude": 2.385943},
{ "name": "Oberkampf - sortie 1 - boulevard Voltaire Cirque d'hiver", "latitude": 48.864467, "longitude": 2.368682},
{ "name": "Hoche-2- Rue du Pré-Saint-Gervais Centre Commercial", "latitude": 48.891114, "longitude": 2.402369},
{ "name": "Hoche -1- Rue Hoche", "latitude": 48.891266, "longitude": 2.402290},
{ "name": "Aubervilliers Quatre Chemins- 4 - Av de la République côté Nos pairs", "latitude": 48.903769, "longitude": 2.391758},
{ "name": "Aubervilliers Quatre Chemins - 1- Av Jean Jaurès côté No impairs", "latitude": 48.903914, "longitude": 2.392115},
{ "name": "Aubervilliers Quatre Chemins- 3 - Av de la République côté Nos impairs", "latitude": 48.903913, "longitude": 2.391907},
{ "name": "Bouche inconnue", "latitude": 48.903696, "longitude": 2.392332},
{ "name": "(La Courneuve 8 mai 1945) Sortie 4 Avenue Lénine", "latitude": 48.920659, "longitude": 2.410677},
{ "name": "La Courneuve 8 Mai 1945 - 2 - Av Jean Jaurès", "latitude": 48.921036, "longitude": 2.410535},
{ "name": "(La Courneuve 8 Mai 1945) Sortie 1 Stade Daniel Féry", "latitude": 48.920766, "longitude": 2.410795},
{ "name": "(La Courneuve 8 Mai 1945) Sortie 3 Av Paul Vaillant-Couturier", "latitude": 48.920814, "longitude": 2.410185},
{ "name": "Saint-Ambroise - 3 - rue Popincourt", "latitude": 48.860625, "longitude": 2.375184},
{ "name": "sortie 2 - rue de Mont-Louis", "latitude": 48.858282, "longitude": 2.389606},
{ "name": "sortie 1- boulevard de Charonne", "latitude": 48.858252, "longitude": 2.390289},
{ "name": "Avenue du Bel-Air", "latitude": 48.847524, "longitude": 2.396050},
{ "name": "Bréguet-Sabin - sortie 2 - rue du Pasteur Wagner", "latitude": 48.855661, "longitude": 2.370074},
{ "name": "Richard Lenoir - 2- Rue du chemin Vert", "latitude": 48.859326, "longitude": 2.371737},
{ "name": "Bréguet-Sabin - sortie 1 - rue saint-Sabin", "latitude": 48.856626, "longitude": 2.370515},
{ "name": "Porte Maillot - sortie 2 - Boulevard Gouvion-Saint-Cyr", "latitude": 48.878209, "longitude": 2.284359},
{ "name": "Voltaire - sortie 5 mairie du 11ième", "latitude": 48.858425, "longitude": 2.379281},
{ "name": "Voltaire - sortie 4 rue Sedaine", "latitude": 48.858392, "longitude": 2.378945},
{ "name": "Saint-Ambroise - 2 - Bv Voltaire", "latitude": 48.860998, "longitude": 2.374557},
{ "name": "Saint-Ambroise - 4 - Bd Richard Lenoir", "latitude": 48.861842, "longitude": 2.373137},
{ "name": "Saint-Ambroise - 5 - rue St Sebastien", "latitude": 48.861968, "longitude": 2.373309},
{ "name": "Voltaire - sortie 3 Richard-Lenoir", "latitude": 48.857450, "longitude": 2.380506},
{ "name": "Voltaire - sortie 2 bd Voltaire", "latitude": 48.857498, "longitude": 2.380814},
{ "name": "Saint-Ambroise - 1 - St Ambroise", "latitude": 48.861188, "longitude": 2.374764},
{ "name": "Voltaire - sortie 1 place Léon Blum", "latitude": 48.857582, "longitude": 2.380701},
{ "name": "Charonne - sortie 4 - rue Gobert", "latitude": 48.855517, "longitude": 2.383758},
{ "name": "Charonne - sortie 3 - rue de Belfort", "latitude": 48.855615, "longitude": 2.383977},
{ "name": "Noisiel - Sortie 1 - Grande allée des bois", "latitude": 48.843493, "longitude": 2.616093},
{ "name": "Bouche inconnue", "latitude": 48.882020, "longitude": 2.393453},
{ "name": "Gare de Lyon - 10 - Rue Legraverend", "latitude": 48.846106, "longitude": 2.375203},
{ "name": "Ledru-Rollin - sortie 4 - rue de Charonne", "latitude": 48.851788, "longitude": 2.373842},
{ "name": "Gare de Lyon - 11 - Rue de Chalon", "latitude": 48.845954, "longitude": 2.375250},
{ "name": "Sèvres Babylone - sortie 1 - rue de Sèvres", "latitude": 48.851768, "longitude": 2.327134},
{ "name": "Saint-Maur Créteil - Sortie 1 rue Leroux", "latitude": 48.806173, "longitude": 2.472459},
{ "name": "Bastille - sortie 2 - rue du Faubourg Saint-Antoine (Hopital des Quinze-Vingts)", "latitude": 48.853129, "longitude": 2.370413},
{ "name": "Bastille - sortie 4 - rue de Lyon (Port de l'Arsenal)", "latitude": 48.851999, "longitude": 2.369790},
{ "name": "Rue des Entrepreneurs (escalator)", "latitude": 48.844600, "longitude": 2.293632},
{ "name": "Rue du Commerce", "latitude": 48.844827, "longitude": 2.293826},
{ "name": "Vaugirard", "latitude": 48.839558, "longitude": 2.301021},
{ "name": "Avenue Jean-Baptiste Clément", "latitude": 48.841042, "longitude": 2.228983},
{ "name": "Rue du Moulin Vert", "latitude": 48.828133, "longitude": 2.326575},
{ "name": "Rue d'Alésia", "latitude": 48.828122, "longitude": 2.327276},
{ "name": "Place Victor et Hélène Basch", "latitude": 48.828287, "longitude": 2.326511},
{ "name": "Église Saint-Pierre de Montrouge", "latitude": 48.828369, "longitude": 2.327093},
{ "name": "Avenue du Maine", "latitude": 48.828384, "longitude": 2.326871},
{ "name": "Boucicaut - sortie 4, avenue Félix Faure", "latitude": 48.841005, "longitude": 2.287837},
{ "name": "Boucicaut - sortie 2, rue Henri Bocquillon", "latitude": 48.841065, "longitude": 2.288139},
{ "name": "Boucicaut - sortie 3, rue de la Convention", "latitude": 48.841137, "longitude": 2.287665},
{ "name": "Boucicaut - sortie 1, rue Sarasate", "latitude": 48.841188, "longitude": 2.287872},
{ "name": "Boucicaut - sortie 5, rue Duranton", "latitude": 48.841028, "longitude": 2.287539},
{ "name": "Pont de Levallois Bécon - 3 - rue Baudin", "latitude": 48.896430, "longitude": 2.280964},
{ "name": "Reuilly - Diderot - sortie 1 - Boulevard Diderot", "latitude": 48.847239, "longitude": 2.386564},
{ "name": "Reuilly - Diderot - sortie 2 - rue Claude Tillier", "latitude": 48.847294, "longitude": 2.387049},
{ "name": "RER Saint-Michel-Notre-Dame", "latitude": 48.854095, "longitude": 2.347752},
{ "name": "Bouche inconnue", "latitude": 48.912077, "longitude": 2.334238},
{ "name": "Mairie de Saint-Ouen - 1 - Mairie de St Ouen", "latitude": 48.911755, "longitude": 2.333985},
{ "name": "Mairie de Saint-Ouen - 2 - Bd Victor Hugo", "latitude": 48.911905, "longitude": 2.333381},
{ "name": "Gare de Lyon - sortie 13 - Rue Van Gogh", "latitude": 48.844466, "longitude": 2.372049},
{ "name": "Gare de Lyon - Sortie 13 - Rue Van Gogh", "latitude": 48.844699, "longitude": 2.371826},
{ "name": "Faidherbe-Chaligny - sortie 2 - rue Chaligny", "latitude": 48.850023, "longitude": 2.384210},
{ "name": "Montgallet", "latitude": 48.844310, "longitude": 2.389993},
{ "name": "Rue du Port Musée Albert Kahn", "latitude": 48.840975, "longitude": 2.227675},
{ "name": "Boulogne - Pont de Saint-Cloud", "latitude": 48.840995, "longitude": 2.227524},
{ "name": "Métro Picpus - Ligne 6", "latitude": 48.844950, "longitude": 2.401228},
{ "name": "Michel Bizot", "latitude": 48.836877, "longitude": 2.402670},
{ "name": "Michel Bizot", "latitude": 48.837201, "longitude": 2.402359},
{ "name": "T3a (Pont du Garigliano) Sortie 3 Bd Poniatowski", "latitude": 48.835387, "longitude": 2.406123},
{ "name": "Porte Dorée - Sortie 2 Avenue Daumesnil", "latitude": 48.835737, "longitude": 2.406338},
{ "name": "Avenue Édouard Vaillant", "latitude": 48.833713, "longitude": 2.244234},
{ "name": "Avenue Victor Hugo escalator", "latitude": 48.833977, "longitude": 2.244152},
{ "name": "Billancourt - sortie 2 rue Billancourt", "latitude": 48.832197, "longitude": 2.238431},
{ "name": "Billancourt - sortie 2 rue Billancourt", "latitude": 48.832266, "longitude": 2.238662},
{ "name": "Notre-Dame de Lorette - 2 - Rue de Châteaudun", "latitude": 48.876166, "longitude": 2.336637},
{ "name": "Notre-Dame de Lorette - 1 - Rue Bourdaloue Église Notre-Dame-de-Lorette", "latitude": 48.876205, "longitude": 2.338603},
{ "name": "Porte Dorée - Sortie 5 Rue de Picpus", "latitude": 48.834214, "longitude": 2.404033},
{ "name": "Porte Dorée - Sortie 4 Rue Ernest Lacoste", "latitude": 48.834884, "longitude": 2.405272},
{ "name": "Boulevard Poniawski (Espace Charenton)", "latitude": 48.832442, "longitude": 2.399069},
{ "name": "Pont de Sèvres", "latitude": 48.829415, "longitude": 2.230287},
{ "name": "Pont de Sèvres", "latitude": 48.829676, "longitude": 2.230404},
{ "name": "Charenton-Écoles", "latitude": 48.821428, "longitude": 2.413661},
{ "name": "Charenton - Écoles", "latitude": 48.822259, "longitude": 2.412374},
{ "name": "Charenton-Écoles", "latitude": 48.821506, "longitude": 2.414417},
{ "name": "Charenton - Écoles", "latitude": 48.822392, "longitude": 2.412542},
{ "name": "Charenton-Écoles", "latitude": 48.821103, "longitude": 2.414567},
{ "name": "Liberté - sortie Rue de Paris - côté numéro impairs - Rue de Valmy", "latitude": 48.827109, "longitude": 2.404799},
{ "name": "Liberté - sortie Rue de Paris - côté numéro pairs - Rue de Valmy", "latitude": 48.827356, "longitude": 2.404790},
{ "name": "Saint-Germain-en-Laye", "latitude": 48.897461, "longitude": 2.094632},
{ "name": "Bouche inconnue", "latitude": 48.898317, "longitude": 2.095096},
{ "name": "Bouche inconnue", "latitude": 48.992745, "longitude": 1.913172},
{ "name": "Maisons-Alfort Stade - sortie avenue du général Leclerc côté n° impairs rue Chevreul", "latitude": 48.809139, "longitude": 2.434828},
{ "name": "Maisons-Alfort Stade - sortie avenue du général Leclerc côté n° pairs avenue Busteau", "latitude": 48.809150, "longitude": 2.434258},
{ "name": "Ledru-Rollin - sortie 3 - rue Traversière", "latitude": 48.851163, "longitude": 2.375866},
{ "name": "Madeleine - Ascenseur Sortie 1 Place de la Madeleine", "latitude": 48.870348, "longitude": 2.325609},
{ "name": "Pereire - 1 - Place du Maréchal Juin", "latitude": 48.884683, "longitude": 2.298006},
{ "name": "Pereire- 2 - Square Albert Besnard", "latitude": 48.884732, "longitude": 2.297655},
{ "name": "Charles de Gaulle - Étoile - sortie 6 - avenue de la Grande Armée", "latitude": 48.874583, "longitude": 2.293522},
{ "name": "Robinson - sortie - avenue Jules Guesde", "latitude": 48.779470, "longitude": 2.280524},
{ "name": "Bouche inconnue", "latitude": 48.841589, "longitude": 2.308019},
{ "name": "Réaumur - Sébastopol - sortie 4 - square Émile Chautemps", "latitude": 48.867410, "longitude": 2.353345},
{ "name": "Boulevard Garibaldi Côté des numéros impairs", "latitude": 48.847773, "longitude": 2.302250},
{ "name": "Bouche inconnue", "latitude": 48.861015, "longitude": 2.321065},
{ "name": "Bouche inconnue", "latitude": 48.861262, "longitude": 2.320377},
{ "name": "Nogent-sur-Marne - Sortie 3 - Avenue Watteau", "latitude": 48.834351, "longitude": 2.472843},
{ "name": "Sortie 2 - Avenue des Marronniers", "latitude": 48.834507, "longitude": 2.471554},
{ "name": "Nogent-sur-Marne", "latitude": 48.834577, "longitude": 2.472536},
{ "name": "Bouche inconnue", "latitude": 48.860264, "longitude": 2.321165},
{ "name": "La Motte-Picquet - Grenelle - sortie 2 avenue de la Motte-Picquet", "latitude": 48.849344, "longitude": 2.298490},
{ "name": "Pont de Levallois – Bécon", "latitude": 48.896327, "longitude": 2.281057},
{ "name": "Pont de Levallois – Bécon", "latitude": 48.897678, "longitude": 2.279730},
{ "name": "Pont de Levallois - 2 -Rue Anatole France", "latitude": 48.897822, "longitude": 2.279663},
{ "name": "Marx Dormoy", "latitude": 48.890519, "longitude": 2.360068},
{ "name": "Boulevard Brune Marché aux Puces", "latitude": 48.827490, "longitude": 2.305804},
{ "name": "Place de la Porte de Vanves", "latitude": 48.827719, "longitude": 2.304726},
{ "name": "Rue Raymond Losserand", "latitude": 48.827730, "longitude": 2.305843},
{ "name": "Boulevard Lefebvre", "latitude": 48.827870, "longitude": 2.305162},
{ "name": "r. de Vaugirard", "latitude": 48.832671, "longitude": 2.288605},
{ "name": "bd Victor", "latitude": 48.832837, "longitude": 2.288268},
{ "name": "La Motte-Picquet Grenelle - sortie 2 avenue de la Motte-Piquet", "latitude": 48.849288, "longitude": 2.298392},
{ "name": "Rue de la Convention", "latitude": 48.846072, "longitude": 2.277750},
{ "name": "Quai André Citroën", "latitude": 48.846196, "longitude": 2.277730},
{ "name": "Bérault - sortie 4 rue des Vignerons", "latitude": 48.845225, "longitude": 2.430791},
{ "name": "Bérault - sortie 3 rue Segond", "latitude": 48.845431, "longitude": 2.430401},
{ "name": "Bérault - sortie 1 Hopital Bégin", "latitude": 48.845473, "longitude": 2.427989},
{ "name": "Bérault - sortie 2 place Bérault", "latitude": 48.845647, "longitude": 2.428068},
{ "name": "Sortie 3 - boulevard de l'amiral Bruix", "latitude": 48.872143, "longitude": 2.277081},
{ "name": "Auber - 4 - Haussmann - Mogador Grands Magasins", "latitude": 48.873517, "longitude": 2.330249},
{ "name": "Saint-Denis Porte de Paris - sortie 1 La Plaine Stade de France", "latitude": 48.929194, "longitude": 2.356847},
{ "name": "Reuilly - Diderot - sortie 3 - rue de Reuilly", "latitude": 48.847384, "longitude": 2.386408},
{ "name": "Reuilly - Diderot - sortie 4 - rue de Chaligny", "latitude": 48.846982, "longitude": 2.384246},
{ "name": "Boulevard Maxime Gorki / Boulevard Paul Vaillant Couturier (Hopital Paul Brousse)", "latitude": 48.796485, "longitude": 2.368060},
{ "name": "Boulevard Maxime Gorki / Rue Jean Baptiste Clément", "latitude": 48.796522, "longitude": 2.368403},
{ "name": "Liberté - sortie Avenue de la Liberté", "latitude": 48.826229, "longitude": 2.406151},
{ "name": "Botzaris", "latitude": 48.879600, "longitude": 2.389089},
{ "name": "Charonne - sortie 2 - Bd Voltaire", "latitude": 48.854596, "longitude": 2.385686},
{ "name": "Bouche inconnue", "latitude": 48.893947, "longitude": 2.347872},
{ "name": "Charonne", "latitude": 48.854565, "longitude": 2.385742},
{ "name": "Charonne - sortie 1 - rue de Charonne", "latitude": 48.854493, "longitude": 2.385460},
{ "name": "Rue des Boulets - sortie 3 - boulevard Voltaire", "latitude": 48.852149, "longitude": 2.389403},
{ "name": "Boulevard Voltaire", "latitude": 48.848692, "longitude": 2.394888},
{ "name": "Sortie 5 Avenue de Taillebourg", "latitude": 48.848705, "longitude": 2.397011},
{ "name": "Bastille - sortie 9 - boulevard Richard-Lenoir", "latitude": 48.854211, "longitude": 2.369013},
{ "name": "Bastille - sortie 1 - rue de la Roquette", "latitude": 48.853570, "longitude": 2.370211},
{ "name": "sortie 1 - Grande Arche", "latitude": 48.892235, "longitude": 2.237863},
{ "name": "La Varenne - Chennevières - sortie 2 avenue du Bac", "latitude": 48.794399, "longitude": 2.512366},
{ "name": "Bouche inconnue", "latitude": 48.843416, "longitude": 2.374227},
{ "name": "Gare de Lyon - 2 - Ministère de l'Économie et Finances", "latitude": 48.842732, "longitude": 2.375462},
{ "name": "Gare de Lyon - 2 - Ministère de l'Économie et Finances", "latitude": 48.842814, "longitude": 2.375315},
{ "name": "Vincennes - sortie 3 rue du docteur Lebel", "latitude": 48.847290, "longitude": 2.431139},
{ "name": "Sortie 2 Avenue de la République", "latitude": 48.847492, "longitude": 2.431160},
{ "name": "Sortie 1 rue de Montreuil", "latitude": 48.847301, "longitude": 2.434188},
{ "name": "Maison Blanche - sortie 4 - rue Bourgon", "latitude": 48.822876, "longitude": 2.358176},
{ "name": "Maison Blanche - sortie 3 - Rue de la Vistule", "latitude": 48.823003, "longitude": 2.358496},
{ "name": "3 - Boieldieu", "latitude": 48.891334, "longitude": 2.239220},
{ "name": "Parvis Esplanade", "latitude": 48.891616, "longitude": 2.239428},
{ "name": "Centre Commercial", "latitude": 48.865057, "longitude": 2.416603},
{ "name": "Forum - Porte Lescot", "latitude": 48.861629, "longitude": 2.347756},
{ "name": "sortie - gare routière", "latitude": 48.855509, "longitude": 2.774047},
{ "name": "sortie 1 - Serris, Centre Commercial", "latitude": 48.855742, "longitude": 2.774022},
{ "name": "Les Gobelins - sortie 4 - Manufacture des Gobelins", "latitude": 48.835038, "longitude": 2.352862},
{ "name": "Les Gobelins - sortie 3 - Rue Le Brun", "latitude": 48.835155, "longitude": 2.353168},
{ "name": "Rue de Lourmel", "latitude": 48.839055, "longitude": 2.282588},
{ "name": "Rue Vasco de Gama escalator", "latitude": 48.838558, "longitude": 2.281509},
{ "name": "Sortie 2 Boulevard Mortier", "latitude": 48.864965, "longitude": 2.408573},
{ "name": "Sortie 3 - Rue de la Py", "latitude": 48.864542, "longitude": 2.406189},
{ "name": "sortie 3 - Cours de la Gondoire, Centre Hospitalier", "latitude": 48.854157, "longitude": 2.771790},
{ "name": "sortie 2 - Montévrain, place Jean Monnet", "latitude": 48.854502, "longitude": 2.771325},
{ "name": "Bercy - sortie 3 rue Corbineau", "latitude": 48.839920, "longitude": 2.381866},
{ "name": "(Bercy) Sortie 2 boulevard de Bercy", "latitude": 48.840233, "longitude": 2.379938},
{ "name": "Bobigny - Pablo Picasso — Sortie 3 : r. Carnot", "latitude": 48.906651, "longitude": 2.449601},
{ "name": "Bouche inconnue", "latitude": 48.906888, "longitude": 2.449601},
{ "name": "Bobigny Pablo Picasso -2- Palais de Justice", "latitude": 48.906971, "longitude": 2.449772},
{ "name": "Bouche inconnue", "latitude": 48.906973, "longitude": 2.449600},
{ "name": "Bouche inconnue", "latitude": 48.906973, "longitude": 2.449949},
{ "name": "Bobigny - Pablo Picasso — Sortie 4 : Préfecture - Centre commercial", "latitude": 48.905978, "longitude": 2.449352},
{ "name": "Square Hélène Boucher", "latitude": 48.818764, "longitude": 2.360041},
{ "name": "Square Hélène Boucher", "latitude": 48.818785, "longitude": 2.360286},
{ "name": "Bouche inconnue", "latitude": 48.819830, "longitude": 2.364276},
{ "name": "Bouche inconnue", "latitude": 48.819858, "longitude": 2.364355},
{ "name": "Boulevard Masséna", "latitude": 48.820118, "longitude": 2.364326},
{ "name": "bd Lefebvre", "latitude": 48.832182, "longitude": 2.288892},
{ "name": "Gabriel Péri", "latitude": 48.916119, "longitude": 2.294476},
{ "name": "Sortie 4 - Rue Belgrand", "latitude": 48.864576, "longitude": 2.405335},
{ "name": "Montparnasse Bienvenüe - sortie 7 - rue du Départ (Centre Commercial)", "latitude": 48.843241, "longitude": 2.323794},
{ "name": "Saint-Lazare RER", "latitude": 48.874785, "longitude": 2.328611},
{ "name": "(Villejuif - Léo Lagrange) Sortie 1 rue René Thibert", "latitude": 48.804677, "longitude": 2.363760},
{ "name": "(Villejuif - Léo Lagrange) Sortie 4 rue Dauphin", "latitude": 48.804613, "longitude": 2.364104},
{ "name": "(Le Kremlin-Bicêtre) Sortie Avenue de Fontainebleau, Avenue Eugène Thomas (Hopital de Bicêtre)", "latitude": 48.810213, "longitude": 2.362045},
{ "name": "(Le Kremlin-Bicêtre) Sortie Rue Edmont Michelet", "latitude": 48.810300, "longitude": 2.362417},
{ "name": "La Varenne - Chennevières - sortie 1 avenue du Mesnil", "latitude": 48.794237, "longitude": 2.513113},
{ "name": "Maisons-Alfort - Les Juillottes - sortie 3 - rue du Buisson Joyeux", "latitude": 48.802748, "longitude": 2.447059},
{ "name": "Maisons-Alfort - Les Juillottes - sortie 1 - rue Louis Pergaud (Centre Commercial)", "latitude": 48.803798, "longitude": 2.444044},
{ "name": "Maisons-Alfort - Les Juillottes - sortie 2 - avenue du Général Leclerc", "latitude": 48.804048, "longitude": 2.444462},
{ "name": "(Villejuif-Louis Aragon) Sortie 2 Boulevard Maxime Gorki", "latitude": 48.787549, "longitude": 2.367966},
{ "name": "Château d'eau", "latitude": 48.872485, "longitude": 2.356165},
{ "name": "(Villejuif-Louis Aragon) Sortie 1 Avenue de Stalingrad", "latitude": 48.787585, "longitude": 2.367024},
{ "name": "(Villejuif-Louis Aragon) Sortie 3 Avenue Louis Aragon", "latitude": 48.788325, "longitude": 2.367979},
{ "name": "Rue du Commerce", "latitude": 48.846951, "longitude": 2.295234},
{ "name": "Rue Fondary", "latitude": 48.847073, "longitude": 2.295220},
{ "name": "Plaisance - sortie 4 - square", "latitude": 48.831809, "longitude": 2.313884},
{ "name": "Plaisance - sortie 3 - rue Decrès", "latitude": 48.831913, "longitude": 2.314013},
{ "name": "Plaisance - sortie 5 - rue Raymond Losserand (Hopitaux)", "latitude": 48.831559, "longitude": 2.313390},
{ "name": "Gare de Lyon - 1 - Boulevard Diderot", "latitude": 48.845433, "longitude": 2.372873},
{ "name": "Bouche inconnue", "latitude": 48.842894, "longitude": 2.374680},
{ "name": "Robespierre - 1 - rue Robespierre", "latitude": 48.855478, "longitude": 2.421973},
{ "name": "Charles de Gaulle - Étoile - sortie 5 - avenue Carnot", "latitude": 48.875319, "longitude": 2.293843},
{ "name": "Avenue Paul Vaillant-Couturier (escalator)", "latitude": 48.816272, "longitude": 2.340513},
{ "name": "Argentine - sortie 1 rue des Acacias", "latitude": 48.875762, "longitude": 2.289386},
{ "name": "Concorde - 6 - Rue Royale", "latitude": 48.866734, "longitude": 2.322567},
{ "name": "Concorde - 7 - Avenue Gabriel", "latitude": 48.867002, "longitude": 2.321724},
{ "name": "Sortie 1 Boulevard Davout", "latitude": 48.863780, "longitude": 2.408547},
{ "name": "Corentin Cariou - sortie 2 - avenue Corentin Cariou (cité des Sciences et de l'industrie)", "latitude": 48.894813, "longitude": 2.382526},
{ "name": "Crimée - Sortie 3 : rue Mathis", "latitude": 48.890632, "longitude": 2.376433},
{ "name": "Crimée - sortie 1 - rue de Flandre, centre commercial", "latitude": 48.891379, "longitude": 2.377321},
{ "name": "Crimée - sortie 1 - rue de Flandre, centre commercial", "latitude": 48.891462, "longitude": 2.377428},
{ "name": "Riquet", "latitude": 48.888273, "longitude": 2.374263},
{ "name": "Rambuteau - sortie 3 rue Geoffroy l'Angevin", "latitude": 48.861052, "longitude": 2.353493},
{ "name": "Pont de Neuilly - sortie 2 - avenue de Madrid", "latitude": 48.884966, "longitude": 2.259279},
{ "name": "Pont de Neuilly - sortie", "latitude": 48.884802, "longitude": 2.259782},
{ "name": "Pont de Neuilly - sortie 1 - rue du Chateau", "latitude": 48.885091, "longitude": 2.260039},
{ "name": "Pont de Neuilly - sortie 3 - rue de l'Église", "latitude": 48.884200, "longitude": 2.261657},
{ "name": "Bouche inconnue", "latitude": 48.903767, "longitude": 2.305729},
{ "name": "Jaurès - sortie 4 - avenue Secrétan", "latitude": 48.882616, "longitude": 2.370451},
{ "name": "Jaurès - sortie 4 - avenue Secrétan", "latitude": 48.882695, "longitude": 2.370452},
{ "name": "Voltaire - sortie 6 square Denis Poulot", "latitude": 48.857968, "longitude": 2.379602},
{ "name": "Wagram - sortie 1 Place Monseigneur Loutil", "latitude": 48.883953, "longitude": 2.304673},
{ "name": "Wagram - sortie 2 avenue de Villiers", "latitude": 48.884081, "longitude": 2.304058},
{ "name": "Porte d'Orléans", "latitude": 48.822189, "longitude": 2.324336},
{ "name": "Sortie 2 Rue de l'Avenir", "latitude": 48.810558, "longitude": 2.301081},
{ "name": "Bobigny - Pantin - Raymond Queneau - 2 - Av Anatole France", "latitude": 48.895099, "longitude": 2.425279},
{ "name": "Bouche inconnue", "latitude": 48.843355, "longitude": 2.464933},
{ "name": "Bouche inconnue", "latitude": 48.843569, "longitude": 2.464699},
{ "name": "Bouche inconnue", "latitude": 48.844087, "longitude": 2.462177},
{ "name": "T3a (Pont du Garigliano/Pte de Vincennes) Sortie Bd. Jourdan", "latitude": 48.820447, "longitude": 2.338969},
{ "name": "Porte de Saint Ouen - 2 - Av de Saint-Ouen Hôpital Bichat", "latitude": 48.897325, "longitude": 2.328980},
{ "name": "Bouche inconnue", "latitude": 48.897353, "longitude": 2.328772},
{ "name": "Porte de Saint Ouen - 1 - Bd Bessières", "latitude": 48.897427, "longitude": 2.328798},
{ "name": "Stalingrad - Sortie 5 - avenue de Flandre", "latitude": 48.885104, "longitude": 2.370273},
{ "name": "Stalingrad - Sortie 4 - Caisse d'assurance maladie", "latitude": 48.885327, "longitude": 2.369775},
{ "name": "Stalingrad - Sortie 6 - bassin de la villette", "latitude": 48.884341, "longitude": 2.369441},
{ "name": "Rome", "latitude": 48.882289, "longitude": 2.321267},
{ "name": "Aubervilliers Quatre Chemins - 2 - Av Jean Jaurès côté No pairs", "latitude": 48.903802, "longitude": 2.392449},
{ "name": "Sortie 5 - Place du Général Leclerc", "latitude": 48.817307, "longitude": 2.319018},
{ "name": "Sortie 6 - Rue Louis Rolland", "latitude": 48.817178, "longitude": 2.319114},
{ "name": "Châtelet", "latitude": 48.858609, "longitude": 2.347674},
{ "name": "Hôtel de Ville - sortie 3 - rue de la Coutellerie", "latitude": 48.857576, "longitude": 2.350845},
{ "name": "Sortie 2 - Rue de l'Ambroisie", "latitude": 48.833665, "longitude": 2.386094},
{ "name": "Sortie 2 - Avenue de la République", "latitude": 48.818352, "longitude": 2.319884},
{ "name": "Sortie 1 - Église Saint-Jacques", "latitude": 48.818245, "longitude": 2.319826},
{ "name": "Rue Robespierre (Centre Commercial)", "latitude": 48.811061, "longitude": 2.384037},
{ "name": "Mairie de Montreuil- 1- Square Jean Jaurès", "latitude": 48.862102, "longitude": 2.441757},
{ "name": "Mairie de Montreuil- 2 - Av Walwein", "latitude": 48.862476, "longitude": 2.441864},
{ "name": "Stalingrad - Sortie 1 - rue de l'Aqueduc", "latitude": 48.884202, "longitude": 2.367636},
{ "name": "Stalingrad - Accès - rue de l'Aqueduc", "latitude": 48.884216, "longitude": 2.367436},
{ "name": "Avenue de la Porte de Choisy (escalator)", "latitude": 48.819932, "longitude": 2.364574},
{ "name": "Sortie 3 - Boulevard Newton", "latitude": 48.842880, "longitude": 2.581971},
{ "name": "Sortie 2 - Boulevard Archimède", "latitude": 48.843286, "longitude": 2.581872},
{ "name": "(Gentilly) Sortie 2 Rue Romain Rolland", "latitude": 48.814216, "longitude": 2.340897},
{ "name": "Pernety - sortie 2 - rue Niepce", "latitude": 48.834505, "longitude": 2.319009},
{ "name": "Bouche inconnue", "latitude": 48.902853, "longitude": 2.306511},
{ "name": "Bouche inconnue", "latitude": 48.902741, "longitude": 2.306208},
{ "name": "Bouche inconnue", "latitude": 48.902767, "longitude": 2.306580},
{ "name": "Sortie 6 Rue Joseph Chailley", "latitude": 48.833990, "longitude": 2.404210},
{ "name": "Porte Dorée - Sortie 1 Place Edouard Renard", "latitude": 48.835181, "longitude": 2.406423},
{ "name": "Miromesnil - Sortie 4- Rue de La Boétie côté des n° pairs", "latitude": 48.874000, "longitude": 2.315832},
{ "name": "Jaurès - sortie 2 - quai de la Loire", "latitude": 48.883085, "longitude": 2.371014},
{ "name": "Jaurès - sortie 1 - boulevard de la Villette", "latitude": 48.882190, "longitude": 2.370276},
{ "name": "Rue Rouget de Lisle", "latitude": 48.829457, "longitude": 2.262793},
{ "name": "Pont de l'Alma", "latitude": 48.862679, "longitude": 2.300995},
{ "name": "Mouton-Duvernet - sortie", "latitude": 48.831169, "longitude": 2.329597},
{ "name": "sortie 2 Boulevard de la Liberté", "latitude": 48.879644, "longitude": 2.416396},
{ "name": "Maisons-Alfort Stade - sortie avenue du général Leclerc côté n° pairs avenue Busteau", "latitude": 48.809038, "longitude": 2.434509},
{ "name": "Mabillon - sortie 2 rue du Four", "latitude": 48.852857, "longitude": 2.335273},
{ "name": "Saint-Lazare - sortie 11 rue Saint-Lazare", "latitude": 48.875858, "longitude": 2.328547},
{ "name": "Saint-Lazare - sortie 10 rue de Caumartin", "latitude": 48.875760, "longitude": 2.328829},
{ "name": "Bobigny - Pantin - Raymond Queneau - 1- Avenue de Paris", "latitude": 48.895567, "longitude": 2.425254},
{ "name": "(Bourg-la-Reine) Sortie 1 Place de la Gare", "latitude": 48.780245, "longitude": 2.312658},
{ "name": "Bouche inconnue", "latitude": 48.840777, "longitude": 2.551389},
{ "name": "Rue d'Alsace", "latitude": 48.876721, "longitude": 2.358329},
{ "name": "Galerie marchande", "latitude": 48.876730, "longitude": 2.359144},
{ "name": "Rue du 8 mai 1945", "latitude": 48.876179, "longitude": 2.358926},
{ "name": "Luxembourg", "latitude": 48.844342, "longitude": 2.339074},
{ "name": "Gaîté - sortie 5 - rue de la Gaîté (Les Théâtres)", "latitude": 48.838450, "longitude": 2.322728},
{ "name": "Gaîté - sortie 2 - Centre Commercial", "latitude": 48.838606, "longitude": 2.321950},
{ "name": "Bobigny - Pablo Picasso — Sortie 1 : Hôtel de ville - MC 93", "latitude": 48.906895, "longitude": 2.449115},
{ "name": "Campo-Formio -sortie 1- Bd de l'Hopital", "latitude": 48.835622, "longitude": 2.358352},
{ "name": "Rue de la Légion Étrangère (Parc Auto)", "latitude": 48.821461, "longitude": 2.324606},
{ "name": "Tolbiac - sortie 2 - avenue d'Italie", "latitude": 48.826773, "longitude": 2.356879},
{ "name": "La Motte-Picquet Grenelle - sortie 4 rue de Pondichéry", "latitude": 48.849422, "longitude": 2.298185},
{ "name": "La Motte-Picquet Grenelle - sortie 5 avenue de Suffren", "latitude": 48.850677, "longitude": 2.300031},
{ "name": "Dôme-Valmy", "latitude": 48.891737, "longitude": 2.237497},
{ "name": "Les Gobelins - sortie 2 - boulevard Arago", "latitude": 48.836159, "longitude": 2.352126},
{ "name": "Bir-Hakeim - sortie 2 Tour Eiffel", "latitude": 48.854314, "longitude": 2.289023},
{ "name": "Chevaleret -sortie 1- Rue Bruant La Pitié-Salpêtrière", "latitude": 48.834748, "longitude": 2.367369},
{ "name": "Boulevard Garibaldi", "latitude": 48.845393, "longitude": 2.310357},
{ "name": "Boulevard Garibaldi Côté des numéros pairs", "latitude": 48.847701, "longitude": 2.302206},
{ "name": "École Vétérinaire de Maisons-Alfort - sortie 2 École Nationale Vétérinaire Musée Fragonard", "latitude": 48.815140, "longitude": 2.421044},
{ "name": "Palais-Royal Musée du Louvre - 7 - Le Carrousel du Louvre", "latitude": 48.862657, "longitude": 2.334578},
{ "name": "Gare de Lyon - 15 - Maison de la RATP", "latitude": 48.843362, "longitude": 2.373358},
{ "name": "Gare de Lyon - 6 - Tour de l'Horloge", "latitude": 48.844231, "longitude": 2.373595},
{ "name": "Place Monge - sortie 1 - place Monge", "latitude": 48.842864, "longitude": 2.351954},
{ "name": "Place Monge - sortie 2 - rue de Navarre - Arènes de Lutèce", "latitude": 48.844475, "longitude": 2.352672},
{ "name": "Boulevard Auguste Blanqui", "latitude": 48.829577, "longitude": 2.349911},
{ "name": "Rue Corvisart", "latitude": 48.829651, "longitude": 2.349864},
{ "name": "Carrefour Pleyel - 4 - Bd Ornano Centre Paris Pleyel", "latitude": 48.919658, "longitude": 2.343840},
{ "name": "Saint-Denis - Porte de Paris - Centre Ville", "latitude": 48.930142, "longitude": 2.356071},
{ "name": "Quai de la Gare - sortie 2- Pont de Bercy", "latitude": 48.837393, "longitude": 2.373515},
{ "name": "Pyramides - sortie 1 Avenue de l'Opéra", "latitude": 48.865353, "longitude": 2.334733},
{ "name": "Pyramides - sortie 3 rue des Pyramides", "latitude": 48.866103, "longitude": 2.334095},
{ "name": "(Créteil-Préfecture) Sortie 1 Préfecture (Centre Commercial Créteil-Soleil)", "latitude": 48.779750, "longitude": 2.459229},
{ "name": "(Créteil-Préfecture) Sortie 2 Avenue du Docteur Paul Casalis (Le Mont-Mesly)", "latitude": 48.779758, "longitude": 2.459523},
{ "name": "(Créteil Pointe du Lac) Sortie 1 Avenue François Mitterand", "latitude": 48.768826, "longitude": 2.463686},
{ "name": "(Créteil Pointe du Lac) Sortie 2 Route de la Pompadour", "latitude": 48.768754, "longitude": 2.463744},
{ "name": "Bouche inconnue", "latitude": 48.914427, "longitude": 2.404144},
{ "name": "Bir-Hakeim - sortie 2 Tour Eiffel", "latitude": 48.854279, "longitude": 2.288936},
{ "name": "Bir-Hakeim - sortie 3 Boulevard de Grenelle", "latitude": 48.853411, "longitude": 2.289712},
{ "name": "Bir-Hakeim - sortie 3 Boulevard de Grenelle", "latitude": 48.853499, "longitude": 2.289903},
{ "name": "Passy - sortie 1 - place du Costa Rica - Maison de Balzac - Musée Georges Clemenceau", "latitude": 48.857523, "longitude": 2.285834},
{ "name": "Passy - sortie 2 - avenue du Président Kennedy - Maison de la Radio - Musée du Vin", "latitude": 48.857471, "longitude": 2.285706},
{ "name": "Sortie 7 Poirier de Narcay - Ascenseur", "latitude": 48.824116, "longitude": 2.325618},
{ "name": "Sortie 7 Poirier de Narcay", "latitude": 48.824257, "longitude": 2.325649},
{ "name": "Sortie 8 Avenue du Général Leclerc", "latitude": 48.824033, "longitude": 2.325928},
{ "name": "Sortie 8 Avenue du Général Leclerc - Ascenseur", "latitude": 48.824101, "longitude": 2.325948},
{ "name": "Bir-Hakeim - sortie 1 rue Nélaton", "latitude": 48.853870, "longitude": 2.289290},
{ "name": "Bir-Hakeim - sortie 1 rue Nélaton", "latitude": 48.853929, "longitude": 2.289441},
{ "name": "Boissy-Saint-Léger - sortie 2 quartier de la Haie Griselle (centre commercial Boissy 2)", "latitude": 48.752810, "longitude": 2.504887},
{ "name": "Boissy-Saint-Léger - sortie 1 place de la gare", "latitude": 48.752996, "longitude": 2.505363},
{ "name": "Entrée RER Colmar/Pereire", "latitude": 48.887039, "longitude": 2.170746},
{ "name": "Sortie 4 - Rue Gabriel Péri", "latitude": 48.818661, "longitude": 2.319292},
{ "name": "Sortie 3 - Place Émile Cresp", "latitude": 48.818823, "longitude": 2.319636},
{ "name": "(La Varenne Chennevières) Sortie 3 avenue Pierre Semard", "latitude": 48.796073, "longitude": 2.513472},
{ "name": "Madeleine - Sortie 1 Place de la Madeleine", "latitude": 48.870284, "longitude": 2.325572},
{ "name": "3 Rue Marat", "latitude": 48.810153, "longitude": 2.385177},
{ "name": "r. Waldeck Rochet", "latitude": 48.906815, "longitude": 2.366594},
{ "name": "r. Léon Blum (Magasins Généraux)", "latitude": 48.906503, "longitude": 2.366629},
{ "name": "av. George Sand (Maison des Sciences de l'Homme)", "latitude": 48.906554, "longitude": 2.364665},
{ "name": "Sortie 2 Passage de la Voûte", "latitude": 48.847067, "longitude": 2.409016},
{ "name": "Sortie 2 Passage de la Voûte", "latitude": 48.847096, "longitude": 2.408699},
{ "name": "Sortie 1 R.du Général Niessel", "latitude": 48.847374, "longitude": 2.409111},
{ "name": "r.du Général Niessel", "latitude": 48.847407, "longitude": 2.408761},
{ "name": "Corentin Cariou - sortie 1- rue Benjamin Constant", "latitude": 48.894934, "longitude": 2.382306},
{ "name": "Pierre et Marie Curie - 2 - av. Maurice Thorez", "latitude": 48.815808, "longitude": 2.377496},
{ "name": "Rue Raymond Queneau (ascenseur)", "latitude": 48.896639, "longitude": 2.359472},
{ "name": "Rond-point de la Chapelle", "latitude": 48.896643, "longitude": 2.359021},
{ "name": "Crimée - sortie 2 - Caisse Nationale d'assurance Vieillesse", "latitude": 48.891231, "longitude": 2.378043},
{ "name": "Bouche inconnue", "latitude": 48.898314, "longitude": 2.094648},
{ "name": "Gare Saint-Lazare Haussmann - RER E - Entrée Rue Saint-Lazare", "latitude": 48.875937, "longitude": 2.328917},
{ "name": "Guy Môquet - sortie 2 - rue de la Jonquière", "latitude": 48.893049, "longitude": 2.327152},
{ "name": "Porte de Pantin -4- Rue Eugène Jumin", "latitude": 48.888202, "longitude": 2.391336},
{ "name": "Porte de Pantin-3- Rue Adolphe Mille", "latitude": 48.888461, "longitude": 2.390831},
{ "name": "École Militaire", "latitude": 48.855140, "longitude": 2.306616},
{ "name": "Bouche inconnue", "latitude": 48.876647, "longitude": 2.392716},
{ "name": "Sortie 2 - Rue Léon Blum", "latitude": 48.839776, "longitude": 2.654090},
{ "name": "Sortie 1 - Avenue Jean Moulin", "latitude": 48.839339, "longitude": 2.654608},
{ "name": "Pierre et Marie Curie - 1 - r. Pierre et Marie Curie", "latitude": 48.815932, "longitude": 2.376902},
{ "name": "Rue Baudricourt", "latitude": 48.826832, "longitude": 2.365737},
{ "name": "r. des Pyrénées", "latitude": 48.847586, "longitude": 2.407111},
{ "name": "Gambetta - sortie 4 - place Martin Nadaud", "latitude": 48.864899, "longitude": 2.395040},
{ "name": "Gambetta - sortie 5 - rue Orfila", "latitude": 48.865106, "longitude": 2.394899},
{ "name": "Bouche inconnue", "latitude": 48.842555, "longitude": 2.366076},
{ "name": "Bouche inconnue", "latitude": 48.843428, "longitude": 2.374242},
{ "name": "Avenue du Bel-Air", "latitude": 48.847711, "longitude": 2.396355},
{ "name": "Avenue Corentin Cariou", "latitude": 48.897339, "longitude": 2.385632},
{ "name": "Forum - Porte du Jour", "latitude": 48.863182, "longitude": 2.343857},
{ "name": "Rue Saint-Sebastien", "latitude": 48.861143, "longitude": 2.367315},
{ "name": "Ledru-Rollin", "latitude": 48.851802, "longitude": 2.373791},
{ "name": "Bouche inconnue", "latitude": 48.829839, "longitude": 2.376870},
{ "name": "Noisiel - Sortie 2", "latitude": 48.843535, "longitude": 2.615912},
{ "name": "Gaîté - sortie 1 - avenue du Maine", "latitude": 48.838522, "longitude": 2.322191},
{ "name": "(Bourg-la-Reine) Sortie 3 Rue des Blagis", "latitude": 48.780221, "longitude": 2.311775},
{ "name": "Basilique de Saint Denis - 2 - Place du Caquet", "latitude": 48.937191, "longitude": 2.359639},
{ "name": "Mairie d'Ivry - sortie 1 - Place de la République", "latitude": 48.811342, "longitude": 2.383519},
{ "name": "Mairie d'Ivry - sortie 1 - Place de la République", "latitude": 48.811357, "longitude": 2.383588},
{ "name": "Porte d'Orléans", "latitude": 48.822122, "longitude": 2.324719},
{ "name": "Porte d'Orléans - 5 - Avenue Ernest Reyer Hôpital de la Croix Saint-Simon", "latitude": 48.822125, "longitude": 2.324524},
{ "name": "Bouche inconnue", "latitude": 48.892557, "longitude": 2.344761},
{ "name": "Alexandre-Dumas", "latitude": 48.856300, "longitude": 2.394441},
{ "name": "(Barbès - Rochechouart) Sortie 4 Bd de la Chapelle impair", "latitude": 48.883724, "longitude": 2.349886},
{ "name": "Sortie 4 - Bd de la Chapelle pair", "latitude": 48.883804, "longitude": 2.349872},
{ "name": "Malakoff - Rue E Dolet", "latitude": 48.815194, "longitude": 2.297429},
{ "name": "Buttes Chaumont", "latitude": 48.878129, "longitude": 2.381319},
{ "name": "Rue René Thibert", "latitude": 48.804587, "longitude": 2.363789},
{ "name": "(Villejuif - Léo Lagrange) Sortie 3 rue Henri Barbusse", "latitude": 48.804524, "longitude": 2.364129},
{ "name": "Bouche inconnue", "latitude": 48.807429, "longitude": 2.509239},
{ "name": "Bus 197 297 391 N14 Sortie 2 Avenue Aristide Briand (Coté Bagneux)", "latitude": 48.793503, "longitude": 2.320639},
{ "name": "Bouche inconnue", "latitude": 48.833145, "longitude": 2.333422},
{ "name": "Bus 197 297 N14 Sortie 1 Avenue Aristide Briand (Coté Cachan)", "latitude": 48.793314, "longitude": 2.320927},
{ "name": "Bouche inconnue", "latitude": 48.842870, "longitude": 2.374688},
{ "name": "Gare de Lyon - 12 - Rue Villiot", "latitude": 48.842936, "longitude": 2.374609},
{ "name": "Bouche inconnue", "latitude": 48.845335, "longitude": 2.373915},
{ "name": "av. du Docteur Arnold Netter", "latitude": 48.847214, "longitude": 2.407409},
{ "name": "Porte d'Ivry - ? - av. de la Porte d'Ivry", "latitude": 48.821131, "longitude": 2.369750},
{ "name": "r. du Sahel", "latitude": 48.841208, "longitude": 2.400961},
{ "name": "r. Dagorno", "latitude": 48.841701, "longitude": 2.400945},
{ "name": "bd de Picpus", "latitude": 48.841667, "longitude": 2.401134},
{ "name": "Sortie 5 Avenue de la Porte de Sèvres", "latitude": 48.835626, "longitude": 2.277853},
{ "name": "r. Léon Blum (Magasins Généraux)", "latitude": 48.906743, "longitude": 2.366293},
{ "name": "cour du Havre", "latitude": 48.876142, "longitude": 2.326561},
{ "name": "r. de Caumartin", "latitude": 48.875738, "longitude": 2.328639},
{ "name": "Forum - Porte Berger", "latitude": 48.861388, "longitude": 2.346403},
{ "name": "(Villejuif - Léo Lagrange) Sortie 2 rue Ambroise Croizat", "latitude": 48.804489, "longitude": 2.363818},
{ "name": "Mairie de Saint-Ouen - 3 Bd Jean Jaurès", "latitude": 48.912330, "longitude": 2.333920},
{ "name": "Odéon - sortie 3 - rue Danton", "latitude": 48.851828, "longitude": 2.341747},
{ "name": "Odéon - sortie 4 - boulevard Saint-Michel", "latitude": 48.851813, "longitude": 2.341813},
{ "name": "(Arcueil-Cachan) Sortie 2 Marché Carnot", "latitude": 48.798291, "longitude": 2.328216},
{ "name": "Saint-François-Xavier", "latitude": 48.851408, "longitude": 2.314263},
{ "name": "Bouche inconnue", "latitude": 48.901034, "longitude": 2.213229},
{ "name": "Bouche inconnue", "latitude": 48.901087, "longitude": 2.213188},
{ "name": "Bouche inconnue", "latitude": 48.901140, "longitude": 2.213147},
{ "name": "Bouche inconnue", "latitude": 48.901193, "longitude": 2.213108},
{ "name": "Porte Maillot - sortie 1 - Palais des Congrès", "latitude": 48.878345, "longitude": 2.283896},
{ "name": "(Laplace) Sortie 1 Avenue Laplace", "latitude": 48.807723, "longitude": 2.333044},
{ "name": "(Laplace) Sortie 2 Rue Ernest Renan (Maison des Examens)", "latitude": 48.808816, "longitude": 2.334806},
{ "name": "Robinson - sortie - avenue de la Gare", "latitude": 48.780265, "longitude": 2.281696},
{ "name": "Montparnasse Bienvenüe - sortie 1 - Porte Océane", "latitude": 48.841429, "longitude": 2.320571},
{ "name": "Bouche inconnue", "latitude": 48.880118, "longitude": 2.356893},
{ "name": "Bouche inconnue", "latitude": 48.875981, "longitude": 2.326119},
{ "name": "Place du 11 novembre 1918", "latitude": 48.876386, "longitude": 2.359625},
{ "name": "Porte de Champerret - 3 - Av de Villiers", "latitude": 48.885426, "longitude": 2.292680},
{ "name": "Bouche inconnue", "latitude": 48.842141, "longitude": 2.365139},
{ "name": "Bouche inconnue", "latitude": 48.842299, "longitude": 2.366094},
{ "name": "Pigalle", "latitude": 48.882250, "longitude": 2.338025},
{ "name": "Pigalle", "latitude": 48.882386, "longitude": 2.337531},
{ "name": "Pigalle", "latitude": 48.882429, "longitude": 2.337286},
{ "name": "Gare de Lyon - Sortie 13 - Rue Van Gogh", "latitude": 48.844496, "longitude": 2.372044},
{ "name": "Gare de Lyon - Sortie 13 - Rue Van Gogh", "latitude": 48.844680, "longitude": 2.371815},
{ "name": "Bouche inconnue", "latitude": 48.843863, "longitude": 2.373091},
{ "name": "Gare de Lyon - 6 - Tour de l'Horloge", "latitude": 48.844321, "longitude": 2.373429},
{ "name": "Bouche inconnue", "latitude": 48.844471, "longitude": 2.372465},
{ "name": "Bouche inconnue", "latitude": 48.843165, "longitude": 2.374808},
{ "name": "Bouche inconnue", "latitude": 48.843270, "longitude": 2.374639},
{ "name": "Bouche inconnue", "latitude": 48.843308, "longitude": 2.374951},
{ "name": "Bouche inconnue", "latitude": 48.843403, "longitude": 2.374762},
{ "name": "Bouche inconnue", "latitude": 48.843788, "longitude": 2.373710},
{ "name": "Bouche inconnue", "latitude": 48.843907, "longitude": 2.373861},
{ "name": "Bouche inconnue", "latitude": 48.879889, "longitude": 2.356649},
{ "name": "Bouche inconnue", "latitude": 48.879910, "longitude": 2.356713},
{ "name": "Bouche inconnue", "latitude": 48.880068, "longitude": 2.355190},
{ "name": "Bouche inconnue", "latitude": 48.880113, "longitude": 2.354968},
{ "name": "Bouche inconnue", "latitude": 48.879882, "longitude": 2.356130},
{ "name": "Bouche inconnue", "latitude": 48.879902, "longitude": 2.356015},
{ "name": "Bouche inconnue", "latitude": 48.880084, "longitude": 2.357074},
{ "name": "Bouche inconnue", "latitude": 48.880110, "longitude": 2.357160},
{ "name": "Bouche inconnue", "latitude": 48.880248, "longitude": 2.357208},
{ "name": "Bouche inconnue", "latitude": 48.880283, "longitude": 2.357226},
{ "name": "Bouche inconnue", "latitude": 48.880368, "longitude": 2.357268},
{ "name": "Bouche inconnue", "latitude": 48.883259, "longitude": 2.358383},
{ "name": "Bouche inconnue", "latitude": 48.875171, "longitude": 2.326235},
{ "name": "Gare RER Haussmann - Place Georges Berry", "latitude": 48.874876, "longitude": 2.328581},
{ "name": "Bouche inconnue", "latitude": 48.874736, "longitude": 2.328653},
{ "name": "Bouche inconnue", "latitude": 48.875619, "longitude": 2.328140},
{ "name": "Bouche inconnue", "latitude": 48.875853, "longitude": 2.328069},
{ "name": "Bouche inconnue", "latitude": 48.842182, "longitude": 2.365046},
{ "name": "Gare d'Austerlitz - sortie 4- Museum", "latitude": 48.841513, "longitude": 2.365682},
{ "name": "Montparnasse Bienvenüe", "latitude": 48.841631, "longitude": 2.320195},
{ "name": "Bouche inconnue", "latitude": 48.879112, "longitude": 2.362150},
{ "name": "Gare de Lyon - 7 - Rue de Bercy", "latitude": 48.843832, "longitude": 2.373521},
{ "name": "Gare de Lyon - 7 - Rue de Bercy", "latitude": 48.843832, "longitude": 2.373487},
{ "name": "Bouche inconnue", "latitude": 48.842956, "longitude": 2.374676},
{ "name": "Bouche inconnue", "latitude": 48.843319, "longitude": 2.374495},
{ "name": "Bouche inconnue", "latitude": 48.843416, "longitude": 2.374321},
{ "name": "Bouche inconnue", "latitude": 48.843460, "longitude": 2.374674},
{ "name": "Bouche inconnue", "latitude": 48.843556, "longitude": 2.374500},
{ "name": "Bouche inconnue", "latitude": 48.843630, "longitude": 2.373994},
{ "name": "Bouche inconnue", "latitude": 48.843748, "longitude": 2.374147},
{ "name": "Bouche inconnue", "latitude": 48.845549, "longitude": 2.373756},
{ "name": "Bouche inconnue", "latitude": 48.880765, "longitude": 2.374076},
{ "name": "Sortie Boulevard Sérurier", "latitude": 48.880016, "longitude": 2.399004},
{ "name": "Nanterre Préfecture - 3 - Bd de Pesaro", "latitude": 48.897021, "longitude": 2.221079},
{ "name": "Nanterre Prefecture - 4 - Terrasses de l'Arche", "latitude": 48.896379, "longitude": 2.222979},
{ "name": "Ourcq - sortie 1 - rue de Lunéville", "latitude": 48.887070, "longitude": 2.386914},